,SSO_ID,Year,Complete Address,Address,City,State,Zipcode,Flow_Location,Flow Location(Corrected),Gallons,Structure_Type,Structure_Type(Corrected),Excursion_Cause,Excursion_Cause(Corrected),Start_Date,Start_Time,End_Date,End_Time,Average_Flow__GPM_,Corrective_Action,Start_Date_Converted,End_Date_Converted,lat,long
0,10424,2021,"8515 HAMMERLY BLVD,Houston,Texas",8515 HAMMERLY BLVD,Houston,Texas,77055.0,Storm Sewer (not contained),Storm Sewer (not contained),157.0,Manhole,Manhole,Grease Blockage,Grease Blockage,2021-04-01,8:35,2021-04-01,11:11,1.0,Cleared Main Line;Cleaned and Disinfected,20210401.0,20210401.0,29.810848427,-95.4997507739999
1,10428,2021,"7206 LA PASEO ST,Houston,Texas",7206 LA PASEO ST,Houston,Texas,77087.0,Storm Sewer (not contained),Storm Sewer (not contained),0.0,Manhole,Manhole,Grease Blockage,Grease Blockage,2021-04-01,11:40,2021-04-01,11:40,0.0,Cleared Main Line,20210401.0,20210401.0,29.678629646,-95.30013751
2,10430,2021,"3502 DARLINGHURST DR,Houston,Texas",3502 DARLINGHURST DR,Houston,Texas,77045.0,Storm Sewer (not contained),Storm Sewer (not contained),166.0,Manhole,Manhole,Grease Blockage,Grease Blockage,2021-04-01,12:25,2021-04-01,13:47,2.0,Cleared Main Line;Cleaned and Disinfected,20210401.0,20210401.0,29.6240110690001,-95.428274011
3,10434,2021,"5411 PARDEE ST,Houston,Texas",5411 PARDEE ST,Houston,Texas,77026.0,Bayou/surface water/drainage ditch,Bayou/surface water/drainage ditch,0.0,City Cleanout,City Cleanout,Grease Blockage,Grease Blockage,2021-04-01,13:44,2021-04-01,13:44,0.0,Cleared Main Line;Cleaned and Disinfected;Cleared Service Lateral,20210401.0,20210401.0,29.805975188,-95.3166422319999
4,10436,2021,"12017 PALMCREST ST,Houston,Texas",12017 PALMCREST ST,Houston,Texas,77034.0,"Contained On Site, not within 5 ft. of Bayou/Surface Water/Drainage Ditch","Contained On Site, not within 5 ft. of Bayou/Surface Water/Drainage Ditch",0.0,Private Cleanout,Private Cleanout,Collection system structural blockage,Collection system structural blockage,2021-04-01,14:55,2021-04-01,14:55,0.0,Set Bypass Pump;Cleaned and Disinfected,20210401.0,20210401.0,29.6279923060001,-95.210625238
5,10440,2021,"7523 KINGSLEY ST,Houston,Texas",7523 KINGSLEY ST,Houston,Texas,77087.0,Storm Sewer (not contained),Storm Sewer (not contained),1020.0,Manhole,Manhole,Rags/Wipes,Rags/Wipes,2021-04-02,7:54,2021-04-02,16:24,2.0,Cleaned and Disinfected;Cleared Main Line,20210402.0,20210402.0,29.68708049,-95.291863231
6,10441,2021,"13655 ELLA BLVD,Houston,Texas",13655 ELLA BLVD,Houston,Texas,77014.0,Storm Sewer (not contained),Storm Sewer (not contained),124.0,Manhole,Manhole,Grease Blockage,Grease Blockage,2021-04-02,9:18,2021-04-02,11:22,1.0,Cleared Main Line;Cleaned and Disinfected,20210402.0,20210402.0,29.966839459,-95.4303954709999
7,10447,2021,"9605 STELLA LINK RD,Houston,Texas",9605 STELLA LINK RD,Houston,Texas,77025.0,Storm Sewer (not contained),Storm Sewer (not contained),1036.0,Private Cleanout,Private Cleanout,Rags/Wipes,Rags/Wipes,2021-04-03,9:30,2021-04-03,18:07,2.0,Cleared Main Line;Cleaned and Disinfected,20210403.0,20210403.0,29.678771007,-95.439832488
8,10451,2021,"8950 CHIMNEY ROCK RD,Houston,Texas",8950 CHIMNEY ROCK RD,Houston,Texas,77096.0,Storm Sewer (not contained),Storm Sewer (not contained),765.0,Manhole,Manhole,Grease Blockage,Grease Blockage,2021-04-03,13:05,2021-04-03,17:20,3.0,Cleared Main Line;Cleaned and Disinfected,20210403.0,20210403.0,29.6809631680001,-95.477006983
9,10456,2021,"2074 ANTOINE DR,Houston,Texas",2074 ANTOINE DR,Houston,Texas,77055.0,"Contained On Site, not within 5 ft. of Bayou/Surface Water/Drainage Ditch","Contained On Site, not within 5 ft. of Bayou/Surface Water/Drainage Ditch",0.0,City Cleanout,City Cleanout,Rags/Wipes,Rags/Wipes,2021-04-03,18:19,2021-04-03,18:19,0.0,Cleaned and Disinfected;Cleared City Clean Out,20210403.0,20210403.0,29.8092305100001,-95.475104291
10,10459,2021,"4000 34TH ST,Houston,Texas",4000 34TH ST,Houston,Texas,77092.0,Storm Sewer (not contained),Storm Sewer (not contained),445.0,Manhole,Manhole,Grease Blockage,Grease Blockage,2021-04-04,13:37,2021-04-04,15:06,5.0,Cleaned and Disinfected;Cleared Main Line,20210404.0,20210404.0,29.8173167,-95.449853807
11,10461,2021,"1916 BALDWIN ST,Houston,Texas",1916 BALDWIN ST,Houston,Texas,77019.0,Storm Sewer (not contained),Storm Sewer (not contained),456.0,City Cleanout,City Cleanout,Collection system structural failure,Collection system structural failure,2021-04-04,14:47,2021-04-04,18:35,2.0,Cleaned and Disinfected;Cleared City Clean Out;Set Bypass Pump,20210404.0,20210404.0,29.753243336,-95.376751626
12,10465,2021,"5003 HERSHE ST,Houston,Texas",5003 HERSHE ST,Houston,Texas,77020.0,Within 5 ft. of Bayou/Surface Water/Drainage Ditch,Within 5 ft. of Bayou/Surface Water/Drainage Ditch,0.0,City Cleanout,City Cleanout,Collection system structural failure,Collection system structural failure,2021-04-05,9:55,2021-04-05,9:55,0.0,Cleaned and Disinfected;Cleared Service Lateral,20210405.0,20210405.0,29.778059344,-95.319956856
13,10466,2021,"10902 HAZEN ST,Houston,Texas",10902 HAZEN ST,Houston,Texas,77072.0,Storm Sewer (not contained),Storm Sewer (not contained),528.0,Manhole,Manhole,Grease Blockage,Grease Blockage,2021-04-05,9:31,2021-04-05,13:55,2.0,Cleaned and Disinfected;Cleared Main Line,20210405.0,20210405.0,29.6924644800001,-95.5713575409999
14,10470,2021,"10707 FORBES SETTLEMENT DR,Houston,Texas",10707 FORBES SETTLEMENT DR,Houston,Texas,77075.0,Storm Sewer (not contained),Storm Sewer (not contained),0.0,Manhole,Manhole,Collection system temporary blockage,Collection system temporary blockage,2021-04-05,13:59,2021-04-05,13:59,0.0,Cleaned and Disinfected;Contain All or Portion of Spill;Returned Spill to Sanitary System,20210405.0,20210405.0,29.6250265370001,-95.294156184
15,10474,2021,"7650 MOONMIST DR,Houston,Texas",7650 MOONMIST DR,Houston,Texas,77036.0,Bayou/surface water/drainage ditch,Bayou/surface water/drainage ditch,0.0,Manhole,Manhole,Grease Blockage,Grease Blockage,2021-04-05,21:37,2021-04-05,21:37,0.0,Cleaned and Disinfected;Cleared Main Line,20210405.0,20210405.0,29.7112792120001,-95.520700587
16,10478,2021,"6000 W SUNFOREST DR,Houston,Texas",6000 W SUNFOREST DR,Houston,Texas,77092.0,"Contained On Site, not within 5 ft. of Bayou/Surface Water/Drainage Ditch","Contained On Site, not within 5 ft. of Bayou/Surface Water/Drainage Ditch",0.0,Private Cleanout,Private Cleanout,Grease Blockage,Grease Blockage,2021-04-06,9:34,2021-04-06,9:34,0.0,Cleared Main Line;Cleaned and Disinfected,20210406.0,20210406.0,29.8484643130001,-95.4789399329999
17,10480,2021,"9200 CULLEN BLVD,Houston,Texas",9200 CULLEN BLVD,Houston,Texas,77051.0,Storm Sewer (not contained),Storm Sewer (not contained),0.0,Manhole,Manhole,Grease Blockage,Grease Blockage,2021-04-06,9:50,2021-04-06,9:50,0.0,Cleaned and Disinfected;Set Bypass Pump,20210406.0,20210406.0,29.6579100000001,-95.355497466
18,10482,2021,"10828 BENTLEY ST,Houston,Texas",10828 BENTLEY ST,Houston,Texas,77093.0,"Contained On Site, not within 5 ft. of Bayou/Surface Water/Drainage Ditch","Contained On Site, not within 5 ft. of Bayou/Surface Water/Drainage Ditch",0.0,Manhole,Manhole,Grease Blockage,Grease Blockage,2021-04-06,11:20,2021-04-06,11:20,0.0,Cleared Main Line;Cleaned and Disinfected,20210406.0,20210406.0,29.872813616,-95.335351227
19,10486,2021,"2502 NORTH BLVD,Houston,Texas",2502 NORTH BLVD,Houston,Texas,77098.0,"Contained On Site, not within 5 ft. of Bayou/Surface Water/Drainage Ditch","Contained On Site, not within 5 ft. of Bayou/Surface Water/Drainage Ditch",400.0,City Cleanout,City Cleanout,Rags/Wipes,Rags/Wipes,2021-04-06,12:37,2021-04-07,15:14,0.0,Cleaned and Disinfected;Cleared Service Lateral,20210406.0,20210407.0,29.727880703,-95.4170606169999
20,10499,2021,"4034 COLGATE ST,Houston,Texas",4034 COLGATE ST,Houston,Texas,77087.0,"Contained On Site, not within 5 ft. of Bayou/Surface Water/Drainage Ditch","Contained On Site, not within 5 ft. of Bayou/Surface Water/Drainage Ditch",1761.0,Private Cleanout,Private Cleanout,Collection system structural blockage,Collection system structural blockage,2021-04-07,8:52,2021-04-08,13:13,1.0,Cleaned and Disinfected,20210407.0,20210408.0,29.682225943,-95.2816097319999
21,10501,2021,"5530 BATAAN RD,Houston,Texas",5530 BATAAN RD,Houston,Texas,77033.0,"Contained On Site, not within 5 ft. of Bayou/Surface Water/Drainage Ditch","Contained On Site, not within 5 ft. of Bayou/Surface Water/Drainage Ditch",0.0,Manhole,Manhole,Grease Blockage,Grease Blockage,2021-04-07,9:24,2021-04-07,9:24,0.0,Cleared Main Line;Cleaned and Disinfected,20210407.0,20210407.0,29.6846562760001,-95.335440494
22,10506,2021,"12633 MEMORIAL DR,Houston,Texas",12633 MEMORIAL DR,Houston,Texas,77024.0,"Contained On Site, not within 5 ft. of Bayou/Surface Water/Drainage Ditch","Contained On Site, not within 5 ft. of Bayou/Surface Water/Drainage Ditch",535.0,Manhole,Manhole,Grease Blockage,Grease Blockage,2021-04-07,10:13,2021-04-07,12:00,5.0,Cleared Main Line;Cleaned and Disinfected,20210407.0,20210407.0,29.766197484,-95.55629568
23,10508,2021,"10318 WILLOWISP DR,Houston,Texas",10318 WILLOWISP DR,Houston,Texas,77035.0,"Contained On Site, not within 5 ft. of Bayou/Surface Water/Drainage Ditch","Contained On Site, not within 5 ft. of Bayou/Surface Water/Drainage Ditch",212.0,Manhole,Manhole,Grease Blockage,Grease Blockage,2021-04-07,10:48,2021-04-07,14:20,1.0,Cleared Main Line;Cleaned and Disinfected,20210407.0,20210407.0,29.6696020850001,-95.4607635249999
24,10516,2021,"5525 CHENNAULT RD,Houston,Texas",5525 CHENNAULT RD,Houston,Texas,77033.0,"Contained On Site, not within 5 ft. of Bayou/Surface Water/Drainage Ditch","Contained On Site, not within 5 ft. of Bayou/Surface Water/Drainage Ditch",0.0,Private Cleanout,Private Cleanout,Grease Blockage,Grease Blockage,2021-04-07,15:32,2021-04-07,15:32,0.0,Cleared Main Line;Cleaned and Disinfected,20210407.0,20210407.0,29.683833425,-95.335349466
25,10517,2021,"3801 EASTSIDE ST,Houston,Texas",3801 EASTSIDE ST,Houston,Texas,77098.0,"Contained On Site, not within 5 ft. of Bayou/Surface Water/Drainage Ditch","Contained On Site, not within 5 ft. of Bayou/Surface Water/Drainage Ditch",1407.0,Manhole,Manhole,Rags/Wipes,Rags/Wipes,2021-04-07,16:57,2021-04-08,16:24,1.0,Cleared Main Line;Cleaned and Disinfected,20210407.0,20210408.0,29.7326969870001,-95.424442475
26,10520,2021,"2918 DALTON ST,Houston,Texas",2918 DALTON ST,Houston,Texas,77017.0,Storm Sewer (not contained),Storm Sewer (not contained),0.0,City Cleanout,City Cleanout,Rags/Wipes,Rags/Wipes,2021-04-08,8:53,2021-04-08,8:53,0.0,Cleaned and Disinfected,20210408.0,20210408.0,29.698150051,-95.273136383
27,10522,2021,"501 TAFT ST,Houston,Texas",501 TAFT ST,Houston,Texas,77019.0,"Contained On Site, not within 5 ft. of Bayou/Surface Water/Drainage Ditch","Contained On Site, not within 5 ft. of Bayou/Surface Water/Drainage Ditch",354.0,Manhole,Manhole,Grease Blockage,Grease Blockage,2021-04-08,8:56,2021-04-08,11:53,2.0,Cleared Main Line;Cleaned and Disinfected,20210408.0,20210408.0,29.760749498,-95.385747336
28,10525,2021,"5746 HARRIET ST,Houston,Texas",5746 HARRIET ST,Houston,Texas,77023.0,Storm Sewer (not contained),Storm Sewer (not contained),0.0,Manhole,Manhole,Grease Blockage,Grease Blockage,2021-04-08,11:29,2021-04-08,11:29,0.0,Cleared Main Line;Cleaned and Disinfected,20210408.0,20210408.0,29.717990141,-95.3172298869999
29,10529,2021,"6600 HARBOR TOWN DR,Houston,Texas",6600 HARBOR TOWN DR,Houston,Texas,77036.0,Storm Sewer - contained,Storm Sewer - contained,118.0,Manhole,Manhole,Grease Blockage,Grease Blockage,2021-04-08,12:59,2021-04-08,14:56,1.0,Cleared Main Line;Cleaned and Disinfected,20210408.0,20210408.0,29.713254995,-95.5276910099999
30,10531,2021,"8303 TWIN HILLS DR,Houston,Texas",8303 TWIN HILLS DR,Houston,Texas,77071.0,Storm Sewer (not contained),Storm Sewer (not contained),312.0,Manhole,Manhole,Grease Blockage,Grease Blockage,2021-04-08,16:00,2021-04-08,21:12,1.0,Cleared Main Line;Cleaned and Disinfected,20210408.0,20210408.0,29.6673222910001,-95.523238376
31,10541,2021,"9603 CEDARHURST DR,Houston,Texas",9603 CEDARHURST DR,Houston,Texas,77096.0,"Contained On Site, not within 5 ft. of Bayou/Surface Water/Drainage Ditch","Contained On Site, not within 5 ft. of Bayou/Surface Water/Drainage Ditch",90.0,Manhole,Manhole,Rags/Wipes,Rags/Wipes,2021-04-09,10:30,2021-04-09,12:00,1.0,Cleared Main Line;Cleaned and Disinfected,20210409.0,20210409.0,29.676791872,-95.468607561
32,10546,2021,"12023 BISSONNET ST,Houston,Texas",12023 BISSONNET ST,Houston,Texas,77099.0,"Contained On Site, not within 5 ft. of Bayou/Surface Water/Drainage Ditch","Contained On Site, not within 5 ft. of Bayou/Surface Water/Drainage Ditch",130.0,Manhole,Manhole,Grease Blockage,Grease Blockage,2021-04-09,12:22,2021-04-09,14:31,1.0,Cleared Main Line;Cleaned and Disinfected,20210409.0,20210409.0,29.6753018630001,-95.590534162
33,10550,2021,"206 TERRACE DR,Houston,Texas",206 TERRACE DR,Houston,Texas,77007.0,"Contained On Site, not within 5 ft. of Bayou/Surface Water/Drainage Ditch","Contained On Site, not within 5 ft. of Bayou/Surface Water/Drainage Ditch",0.0,Private Cleanout,Private Cleanout,Collection system structural blockage,Collection system structural blockage,2021-04-09,14:15,2021-04-09,14:15,0.0,Cleaned and Disinfected,20210409.0,20210409.0,29.763425924,-95.424063446
34,10551,2021,"3602 ELYSIAN ST,Houston,Texas",3602 ELYSIAN ST,Houston,Texas,77009.0,Storm Sewer (not contained),Storm Sewer (not contained),728.0,Manhole,Manhole,Rags/Wipes,Rags/Wipes,2021-04-09,15:21,2021-04-09,21:24,2.0,Cleared Main Line;Cleaned and Disinfected,20210409.0,20210409.0,29.7933950280001,-95.3511513619999
35,10566,2021,"8515 HAMMERLY BLVD,Houston,Texas",8515 HAMMERLY BLVD,Houston,Texas,77055.0,"Contained On Site, not within 5 ft. of Bayou/Surface Water/Drainage Ditch","Contained On Site, not within 5 ft. of Bayou/Surface Water/Drainage Ditch",0.0,Manhole,Manhole,Grease Blockage,Grease Blockage,2021-04-11,13:14,2021-04-11,13:14,0.0,Cleaned and Disinfected;Cleared Main Line,20210411.0,20210411.0,29.810848427,-95.4997507739999
36,10572,2021,"16511 QUIET QUAIL DR,Houston,Texas",16511 QUIET QUAIL DR,Houston,Texas,77489.0,"Contained On Site, not within 5 ft. of Bayou/Surface Water/Drainage Ditch","Contained On Site, not within 5 ft. of Bayou/Surface Water/Drainage Ditch",676.0,Manhole,Manhole,Grease Blockage,Grease Blockage,2021-04-12,10:13,2021-04-12,21:29,1.0,Cleaned and Disinfected;Cleared Main Line,20210412.0,20210412.0,29.586824295,-95.51314296
37,10573,2021,"4031 KNOXVILLE ST,Houston,Texas",4031 KNOXVILLE ST,Houston,Texas,77051.0,"Contained On Site, not within 5 ft. of Bayou/Surface Water/Drainage Ditch","Contained On Site, not within 5 ft. of Bayou/Surface Water/Drainage Ditch",0.0,City Cleanout,City Cleanout,Rags/Wipes,Rags/Wipes,2021-04-12,11:15,2021-04-12,11:15,0.0,Cleared Service Lateral;Cleaned and Disinfected,20210412.0,20210412.0,29.6651503300001,-95.3663430619999
38,10575,2021,"1414 C EMANCIPATION AVE,Houston,Texas",1414 C EMANCIPATION AVE,Houston,Texas,77003.0,"Contained On Site, not within 5 ft. of Bayou/Surface Water/Drainage Ditch","Contained On Site, not within 5 ft. of Bayou/Surface Water/Drainage Ditch",0.0,City Cleanout,City Cleanout,Rags/Wipes,Rags/Wipes,2021-04-12,11:32,2021-04-12,11:32,0.0,Cleaned and Disinfected;Cleared City Clean Out,20210412.0,20210412.0,29.746154174,-95.355774237
39,10576,2021,"4402 JEFFERSON ST,Houston,Texas",4402 JEFFERSON ST,Houston,Texas,77023.0,Storm Sewer (not contained),Storm Sewer (not contained),4725.0,Manhole,Manhole,Grease Blockage,Grease Blockage,2021-04-12,11:35,2021-04-12,11:35,0.0,Cleared Main Line;Cleaned and Disinfected,20210412.0,20210412.0,29.7346521910001,-95.336334591
40,10579,2021,"7960 RAND ST,Houston,Texas",7960 RAND ST,Houston,Texas,77028.0,Within 5 ft. of Bayou/Surface Water/Drainage Ditch,Within 5 ft. of Bayou/Surface Water/Drainage Ditch,0.0,City Cleanout,City Cleanout,Rags/Wipes,Rags/Wipes,2021-04-12,12:24,2021-04-12,12:24,0.0,Cleaned and Disinfected;Cleared Service Lateral,20210412.0,20210412.0,29.805207448,-95.2816960659999
41,10581,2021,"8030 W AIRPORT BLVD,Houston,Texas",8030 W AIRPORT BLVD,Houston,Texas,77071.0,Storm Sewer (not contained),Storm Sewer (not contained),1064.0,Manhole,Manhole,Grease Blockage,Grease Blockage,2021-04-12,12:35,2021-04-12,21:26,2.0,Cleaned and Disinfected;Cleared Main Line,20210412.0,20210412.0,29.641990419,-95.51970314
42,10587,2021,"3130 MANGUM RD,Houston,Texas",3130 MANGUM RD,Houston,Texas,77092.0,Storm Sewer (not contained),Storm Sewer (not contained),360.0,Private Cleanout,Private Cleanout,Grease Blockage,Grease Blockage,2021-04-13,9:37,2021-04-13,15:36,1.0,Cleared Main Line;Cleaned and Disinfected,20210413.0,20210413.0,29.81683101,-95.4592479089999
43,10594,2021,"4308 DOWNS LN,Houston,Texas",4308 DOWNS LN,Houston,Texas,77093.0,Within 5 ft. of Bayou/Surface Water/Drainage Ditch,Within 5 ft. of Bayou/Surface Water/Drainage Ditch,234.0,City Cleanout,City Cleanout,Rags/Wipes,Rags/Wipes,2021-04-13,14:28,2021-04-13,16:25,2.0,Cleared Service Lateral;Cleaned and Disinfected,20210413.0,20210413.0,29.857564084,-95.326879553
44,10603,2021,"11753 W BELLFORT ST,Houston,Texas",11753 W BELLFORT ST,Houston,Texas,77477.0,Storm Sewer (not contained),Storm Sewer (not contained),660.0,Force Main,Force Main,Collection system structural failure,Collection system structural failure,2021-04-14,10:20,2021-04-14,14:00,3.0,Cleaned and Disinfected;Contain All or Portion of Spill,20210414.0,20210414.0,29.6572828240001,-95.586166687
45,10612,2021,"5603 BARREMORE ST,Houston,Texas",5603 BARREMORE ST,Houston,Texas,77023.0,Storm Sewer (not contained),Storm Sewer (not contained),790.0,Manhole,Manhole,Grease Blockage,Grease Blockage,2021-04-15,10:40,2021-04-15,17:15,2.0,Cleared Main Line;Cleaned and Disinfected,20210415.0,20210415.0,29.722707686,-95.3192228519999
46,10614,2021,"2106 GANO ST,Houston,Texas",2106 GANO ST,Houston,Texas,77009.0,Storm Sewer (not contained),Storm Sewer (not contained),317.0,Service Lateral,Service Lateral,Collection system structural failure,Collection system structural failure,2021-04-15,10:36,2021-04-15,16:45,1.0,Cleaned and Disinfected;Cleared Service Lateral,20210415.0,20210415.0,29.7807529940001,-95.354632538
47,10616,2021,"206 TERRACE DR,Houston,Texas",206 TERRACE DR,Houston,Texas,77007.0,"Contained On Site, not within 5 ft. of Bayou/Surface Water/Drainage Ditch","Contained On Site, not within 5 ft. of Bayou/Surface Water/Drainage Ditch",0.0,Manhole,Manhole,Collection system structural blockage,Collection system structural blockage,2021-04-15,12:36,2021-04-15,12:36,0.0,Cleaned and Disinfected,20210415.0,20210415.0,29.763425924,-95.424063446
48,10617,2021,"4925 WEEPING WILLOW RD,Houston,Texas",4925 WEEPING WILLOW RD,Houston,Texas,77092.0,Bayou/surface water/drainage ditch,Bayou/surface water/drainage ditch,0.0,Service Lateral,Service Lateral,Collection system structural failure,Collection system structural failure,2021-04-14,13:41,2021-04-14,13:41,0.0,Cleared Service Lateral;Cleaned and Disinfected;Set Bypass Pump,20210414.0,20210414.0,29.8379724750001,-95.464304963
49,10618,2021,"2134 SKINNER RD,Houston,Texas",2134 SKINNER RD,Houston,Texas,77093.0,Within 5 ft. of Bayou/Surface Water/Drainage Ditch,Within 5 ft. of Bayou/Surface Water/Drainage Ditch,0.0,City Cleanout,City Cleanout,Collection system structural blockage,Collection system structural blockage,2021-04-15,13:46,2021-04-15,13:46,0.0,Cleared Service Lateral;Cleaned and Disinfected,20210415.0,20210415.0,29.8671608180001,-95.35167339
50,10625,2021,"4011 BEGGS ST,Houston,Texas",4011 BEGGS ST,Houston,Texas,77009.0,Bayou/surface water/drainage ditch,Bayou/surface water/drainage ditch,0.0,Service Lateral,Service Lateral,Collection system structural failure,Collection system structural failure,2021-04-16,9:39,2021-04-17,18:13,0.0,Cleared Service Lateral;Cleaned and Disinfected,20210416.0,20210417.0,29.796512439,-95.3656577579999
51,10628,2021,"15001 MCCONN,Houston,Texas",15001 MCCONN,Houston,Texas,77598.0,Storm Sewer (not contained),Storm Sewer (not contained),0.0,Manhole,Manhole,Grease Blockage,Grease Blockage,2021-04-16,13:25,2021-04-16,13:25,0.0,Cleared Service Lateral;Cleaned and Disinfected,20210416.0,20210416.0,29.5666012130001,-95.1510456
52,10630,2021,"11511 SOUTHWEST FWY,Houston,Texas",11511 SOUTHWEST FWY,Houston,Texas,77031.0,Storm Sewer (not contained),Storm Sewer (not contained),524.0,Manhole,Manhole,Grease Blockage,Grease Blockage,2021-04-16,15:20,2021-04-16,19:42,2.0,Cleaned and Disinfected;Cleared Main Line,20210416.0,20210416.0,29.653269136,-95.565594672
53,10637,2021,"1002 ALTHEA DR,Houston,Texas",1002 ALTHEA DR,Houston,Texas,77018.0,"Contained On Site, not within 5 ft. of Bayou/Surface Water/Drainage Ditch","Contained On Site, not within 5 ft. of Bayou/Surface Water/Drainage Ditch",246.0,Manhole,Manhole,Grease Blockage,Grease Blockage,2021-04-17,11:10,2021-04-17,13:12,2.0,Cleared Main Line;Cleaned and Disinfected,20210417.0,20210417.0,29.8250017730001,-95.424805831
54,10644,2021,"405 W TIDWELL RD,Houston,Texas",405 W TIDWELL RD,Houston,Texas,77091.0,"Contained On Site, not within 5 ft. of Bayou/Surface Water/Drainage Ditch","Contained On Site, not within 5 ft. of Bayou/Surface Water/Drainage Ditch",0.0,City Cleanout,City Cleanout,Rags/Wipes,Rags/Wipes,2021-04-18,19:08,2021-04-18,19:08,0.0,Cleaned and Disinfected;Cleared City Clean Out,20210418.0,20210418.0,29.8470804610001,-95.405667934
55,10645,2021,"5330 W BELLFORT AVE,Houston,Texas",5330 W BELLFORT AVE,Houston,Texas,77035.0,Storm Sewer (not contained),Storm Sewer (not contained),75.0,Manhole,Manhole,Rags/Wipes,Rags/Wipes,2021-04-19,9:18,2021-04-19,9:43,3.0,Cleared Main Line;Cleaned and Disinfected,20210419.0,20210419.0,29.65918272,-95.477213279
56,10660,2021,"7431 AVENUE L,Houston,Texas",7431 AVENUE L,Houston,Texas,77011.0,Storm Sewer (not contained),Storm Sewer (not contained),0.0,City Cleanout,City Cleanout,Rags/Wipes,Rags/Wipes,2021-04-19,13:24,2021-04-19,13:24,0.0,Cleared Main Line;Cleaned and Disinfected,20210419.0,20210419.0,29.7402458120001,-95.2898147769999
57,10678,2021,"5800 SOUTHMUND ST,Houston,Texas",5800 SOUTHMUND ST,Houston,Texas,77033.0,"Contained On Site, not within 5 ft. of Bayou/Surface Water/Drainage Ditch","Contained On Site, not within 5 ft. of Bayou/Surface Water/Drainage Ditch",0.0,Manhole,Manhole,Rags/Wipes,Rags/Wipes,2021-04-20,12:58,2021-04-20,12:58,0.0,Cleared Main Line;Cleaned and Disinfected,20210420.0,20210420.0,29.6827633070001,-95.3336585009999
58,10679,2021,"750 W 24TH ST,Houston,Texas",750 W 24TH ST,Houston,Texas,77008.0,"Contained On Site, not within 5 ft. of Bayou/Surface Water/Drainage Ditch","Contained On Site, not within 5 ft. of Bayou/Surface Water/Drainage Ditch",0.0,Private Cleanout,Private Cleanout,Grease Blockage,Grease Blockage,2021-04-20,13:19,2021-04-20,13:19,0.0,Cleared Main Line;Cleaned and Disinfected,20210420.0,20210420.0,29.807795277,-95.412020243
59,10680,2021,"2406 CANAL ST,Houston,Texas",2406 CANAL ST,Houston,Texas,77003.0,"Contained On Site, not within 5 ft. of Bayou/Surface Water/Drainage Ditch","Contained On Site, not within 5 ft. of Bayou/Surface Water/Drainage Ditch",0.0,Manhole,Manhole,Rags/Wipes,Rags/Wipes,2021-04-20,14:40,2021-04-21,21:02,0.0,Cleared Main Line;Cleaned and Disinfected,20210420.0,20210421.0,29.7576318490001,-95.346007308
60,10681,2021,"3211 RALEIGH ST,Houston,Texas",3211 RALEIGH ST,Houston,Texas,77021.0,"Contained On Site, not within 5 ft. of Bayou/Surface Water/Drainage Ditch","Contained On Site, not within 5 ft. of Bayou/Surface Water/Drainage Ditch",40.25,Manhole,Manhole,Grease Blockage,Grease Blockage,2021-04-20,14:02,2021-04-20,16:46,0.0,Cleared Main Line;Cleaned and Disinfected,20210420.0,20210420.0,29.70215612,-95.374056007
61,10682,2021,"3106 JOSEPHINE ST,Houston,Texas",3106 JOSEPHINE ST,Houston,Texas,77026.0,Bayou/surface water/drainage ditch,Bayou/surface water/drainage ditch,0.0,Private Cleanout,Private Cleanout,Rags/Wipes,Rags/Wipes,2021-04-20,15:28,2021-04-20,15:28,0.0,Cleared Service Lateral;Cleaned and Disinfected,20210420.0,20210420.0,29.7893600350001,-95.3379434979999
62,10683,2021,"8011 LANGDON LN,Houston,Texas",8011 LANGDON LN,Houston,Texas,77036.0,"Contained On Site, not within 5 ft. of Bayou/Surface Water/Drainage Ditch","Contained On Site, not within 5 ft. of Bayou/Surface Water/Drainage Ditch",174.0,Manhole,Manhole,Grease Blockage,Grease Blockage,2021-04-20,15:03,2021-04-20,16:30,2.0,Cleared Main Line;Cleaned and Disinfected,20210420.0,20210420.0,29.694847371,-95.527579531
63,10688,2021,"8004 MENDEZ ST,Houston,Texas",8004 MENDEZ ST,Houston,Texas,77029.0,"Contained On Site, not within 5 ft. of Bayou/Surface Water/Drainage Ditch","Contained On Site, not within 5 ft. of Bayou/Surface Water/Drainage Ditch",0.0,City Cleanout,City Cleanout,Rags/Wipes,Rags/Wipes,2021-04-21,10:58,2021-04-22,0:57,0.0,Cleared Service Lateral;Cleaned and Disinfected,20210421.0,20210422.0,29.763172497,-95.285003984
64,10689,2021,"544 YALE ST,Houston,Texas",544 YALE ST,Houston,Texas,77007.0,"Contained On Site, not within 5 ft. of Bayou/Surface Water/Drainage Ditch","Contained On Site, not within 5 ft. of Bayou/Surface Water/Drainage Ditch",1468.0,City Cleanout,City Cleanout,Grease Blockage,Grease Blockage,2021-04-21,11:37,2021-04-22,13:05,1.0,Cleared Service Lateral;Cleaned and Disinfected,20210421.0,20210422.0,29.7812674750001,-95.398755379
65,10690,2021,"13484 NORTHWEST FWY,Houston,Texas",13484 NORTHWEST FWY,Houston,Texas,77040.0,Bayou/surface water/drainage ditch,Bayou/surface water/drainage ditch,5788.0,Manhole,Manhole,Grease Blockage,Grease Blockage,2021-04-21,12:21,2021-04-22,12:07,4.0,Cleared Main Line;Cleaned and Disinfected,20210421.0,20210422.0,29.8538980070001,-95.509104978
66,10691,2021,"9603 CEDARHURST DR,Houston,Texas",9603 CEDARHURST DR,Houston,Texas,77096.0,"Contained On Site, not within 5 ft. of Bayou/Surface Water/Drainage Ditch","Contained On Site, not within 5 ft. of Bayou/Surface Water/Drainage Ditch",188.0,Manhole,Manhole,Grease Blockage,Grease Blockage,2021-04-21,12:31,2021-04-21,14:05,2.0,Cleared Main Line;Cleaned and Disinfected,20210421.0,20210421.0,29.676791872,-95.468607561
67,10692,2021,"4004 IRVINGTON BLVD,Houston,Texas",4004 IRVINGTON BLVD,Houston,Texas,77009.0,Storm Sewer (not contained),Storm Sewer (not contained),152.0,Private Cleanout,Private Cleanout,Grease Blockage,Grease Blockage,2021-04-21,12:42,2021-04-21,14:37,1.0,Cleared Main Line;Cleaned and Disinfected,20210421.0,20210421.0,29.797653048,-95.360849479
68,10696,2021,"4114 FULTON ST,Houston,Texas",4114 FULTON ST,Houston,Texas,77009.0,Within 5 ft. of Bayou/Surface Water/Drainage Ditch,Within 5 ft. of Bayou/Surface Water/Drainage Ditch,0.0,Manhole,Manhole,Rags/Wipes,Rags/Wipes,2021-04-22,9:48,2021-04-22,9:48,0.0,Cleared Main Line;Cleaned and Disinfected,20210422.0,20210422.0,29.7975276970001,-95.367803022
69,10701,2021,"15830 ROSEBRIAR DR,Houston,Texas",15830 ROSEBRIAR DR,Houston,Texas,77489.0,Storm Sewer (not contained),Storm Sewer (not contained),412.0,Manhole,Manhole,Grease Blockage,Grease Blockage,2021-04-22,10:51,2021-04-22,12:34,4.0,Cleared Main Line;Cleaned and Disinfected,20210422.0,20210422.0,29.596065762,-95.5015035979999
70,10704,2021,"7402 AVENUE L,Houston,Texas",7402 AVENUE L,Houston,Texas,77011.0,"Contained On Site, not within 5 ft. of Bayou/Surface Water/Drainage Ditch","Contained On Site, not within 5 ft. of Bayou/Surface Water/Drainage Ditch",0.0,City Cleanout,City Cleanout,Grease Blockage,Grease Blockage,2021-04-22,15:19,2021-04-22,15:19,0.0,Cleared Service Lateral;Cleaned and Disinfected,20210422.0,20210422.0,29.740415001,-95.290994027
71,10709,2021,"910 MCINTOSH ST,Houston,Texas",910 MCINTOSH ST,Houston,Texas,77009.0,Bayou/surface water/drainage ditch,Bayou/surface water/drainage ditch,0.0,City Cleanout,City Cleanout,Rags/Wipes,Rags/Wipes,2021-04-23,10:14,2021-04-23,10:14,0.0,Cleared City Clean Out;Cleaned and Disinfected,20210423.0,20210423.0,29.784923829,-95.362415638
72,10713,2021,"1526 TEANAWAY LN,Houston,Texas",1526 TEANAWAY LN,Houston,Texas,77029.0,"Contained On Site, not within 5 ft. of Bayou/Surface Water/Drainage Ditch","Contained On Site, not within 5 ft. of Bayou/Surface Water/Drainage Ditch",0.0,City Cleanout,City Cleanout,Collection system structural blockage,Collection system structural blockage,2021-04-23,10:55,2021-04-23,10:55,0.0,Cleaned and Disinfected;Set Bypass Pump,20210423.0,20210423.0,29.7635270100001,-95.276823666
73,10714,2021,"791 DAVIDSON ST,Houston,Texas",791 DAVIDSON ST,Houston,Texas,77091.0,Bayou/surface water/drainage ditch,Bayou/surface water/drainage ditch,0.0,Service Lateral,Service Lateral,Collection system structural failure,Collection system structural failure,2021-04-23,12:24,2021-04-23,12:24,0.0,Cleaned and Disinfected,20210423.0,20210423.0,29.84812757,-95.417392121
74,10715,2021,"9501 BAUMAN RD,Houston,Texas",9501 BAUMAN RD,Houston,Texas,77076.0,"Contained On Site, not within 5 ft. of Bayou/Surface Water/Drainage Ditch","Contained On Site, not within 5 ft. of Bayou/Surface Water/Drainage Ditch",0.0,Service Lateral,Service Lateral,Collection system structural failure,Collection system structural failure,2021-04-23,14:48,2021-04-23,14:48,0.0,Cleaned and Disinfected,20210423.0,20210423.0,29.846786088,-95.3718307779999
75,10718,2021,"5102 RIPPLEBROOK DR,Houston,Texas",5102 RIPPLEBROOK DR,Houston,Texas,77045.0,"Contained On Site, not within 5 ft. of Bayou/Surface Water/Drainage Ditch","Contained On Site, not within 5 ft. of Bayou/Surface Water/Drainage Ditch",0.0,Service Lateral,Service Lateral,Collection system structural failure,Collection system structural failure,2021-04-23,20:13,2021-04-23,20:13,0.0,Cleaned and Disinfected,20210423.0,20210423.0,29.625644744,-95.45722829
76,10719,2021,"11914 S WILCREST DR,Houston,Texas",11914 S WILCREST DR,Houston,Texas,77099.0,"Contained On Site, not within 5 ft. of Bayou/Surface Water/Drainage Ditch","Contained On Site, not within 5 ft. of Bayou/Surface Water/Drainage Ditch",0.0,Manhole,Manhole,Grease Blockage,Grease Blockage,2021-04-24,10:06,2021-04-24,10:06,0.0,Cleaned and Disinfected;Cleared Main Line,20210424.0,20210424.0,29.6498036940001,-95.566595362
77,10721,2021,"1530 TEANAWAY LN,Houston,Texas",1530 TEANAWAY LN,Houston,Texas,77029.0,"Contained On Site, not within 5 ft. of Bayou/Surface Water/Drainage Ditch","Contained On Site, not within 5 ft. of Bayou/Surface Water/Drainage Ditch",0.0,City Cleanout,City Cleanout,Collection system structural failure,Collection system structural failure,2021-04-24,12:03,2021-04-24,12:03,0.0,Cleaned and Disinfected;Set Bypass Pump,20210424.0,20210424.0,29.7633818350001,-95.276822408
78,10724,2021,"2074 ANTOINE DR,Houston,Texas",2074 ANTOINE DR,Houston,Texas,77055.0,"Contained On Site, not within 5 ft. of Bayou/Surface Water/Drainage Ditch","Contained On Site, not within 5 ft. of Bayou/Surface Water/Drainage Ditch",180.0,Manhole,Manhole,Grease Blockage,Grease Blockage,2021-04-25,9:36,2021-04-25,11:05,2.0,Cleared Main Line;Cleaned and Disinfected,20210425.0,20210425.0,29.8092305100001,-95.475104291
79,10725,2021,"16511 QUIET QUAIL DR,Houston,Texas",16511 QUIET QUAIL DR,Houston,Texas,77489.0,"Contained On Site, not within 5 ft. of Bayou/Surface Water/Drainage Ditch","Contained On Site, not within 5 ft. of Bayou/Surface Water/Drainage Ditch",0.0,Manhole,Manhole,Grease Blockage,Grease Blockage,2021-04-25,10:05,2021-04-25,10:05,0.0,Cleared Main Line;Cleaned and Disinfected,20210425.0,20210425.0,29.586824295,-95.51314296
80,10736,2021,"6111 CHIMNEY ROCK RD,Houston,Texas",6111 CHIMNEY ROCK RD,Houston,Texas,77081.0,Bayou/surface water/drainage ditch,Bayou/surface water/drainage ditch,745.0,Manhole,Manhole,Rags/Wipes,Rags/Wipes,2021-04-26,11:12,2021-04-26,14:36,4.0,Cleared Main Line;Cleaned and Disinfected,20210426.0,20210426.0,29.714070177,-95.476313883
81,10740,2021,"206 TERRACE DR,Houston,Texas",206 TERRACE DR,Houston,Texas,77007.0,Bayou/surface water/drainage ditch,Bayou/surface water/drainage ditch,12634.75,Gravity Main,Gravity Main,Collection system structural failure,Collection system structural failure,2021-04-23,15:23,2021-04-26,14:47,3.0,Set Bypass Pump,20210423.0,20210426.0,29.763425924,-95.424063446
82,10743,2021,"1724 OAK TREE DR,Houston,Texas",1724 OAK TREE DR,Houston,Texas,77080.0,Storm Sewer (not contained),Storm Sewer (not contained),8257.0,City Cleanout,City Cleanout,Grease Blockage,Grease Blockage,2021-04-26,17:08,2021-04-29,13:10,2.0,Cleaned and Disinfected;Cleared Main Line,20210426.0,20210429.0,29.8049678090001,-95.526766905
83,10748,2021,"1925 LYNNFIELD ST,Houston,Texas",1925 LYNNFIELD ST,Houston,Texas,77093.0,Bayou/surface water/drainage ditch,Bayou/surface water/drainage ditch,0.0,Manhole,Manhole,Grease Blockage,Grease Blockage,2021-04-27,10:55,2021-04-27,10:55,0.0,Cleared Main Line;Cleaned and Disinfected,20210427.0,20210427.0,29.82027878,-95.349474566
84,10749,2021,"9605 STELLA LINK RD,Houston,Texas",9605 STELLA LINK RD,Houston,Texas,77025.0,"Contained On Site, not within 5 ft. of Bayou/Surface Water/Drainage Ditch","Contained On Site, not within 5 ft. of Bayou/Surface Water/Drainage Ditch",190.0,Private Cleanout,Private Cleanout,Grease Blockage,Grease Blockage,2021-04-27,10:47,2021-04-27,13:57,1.0,Cleared Main Line;Cleaned and Disinfected,20210427.0,20210427.0,29.678771007,-95.439832488
85,10753,2021,"10903 PANAY DR,Houston,Texas",10903 PANAY DR,Houston,Texas,77048.0,Bayou/surface water/drainage ditch,Bayou/surface water/drainage ditch,328.0,Manhole,Manhole,Grease Blockage,Grease Blockage,2021-04-27,12:07,2021-04-27,17:34,1.0,Cleared Main Line;Cleaned and Disinfected,20210427.0,20210427.0,29.640454603,-95.347247662
86,10755,2021,"6802 TIERWESTER ST,Houston,Texas",6802 TIERWESTER ST,Houston,Texas,77021.0,Storm Sewer (not contained),Storm Sewer (not contained),470.0,Manhole,Manhole,Grease Blockage,Grease Blockage,2021-04-27,14:11,2021-04-27,18:06,2.0,Cleared Main Line;Cleaned and Disinfected,20210427.0,20210427.0,29.6965281110001,-95.366613378
87,10756,2021,"714 WILDER ST,Houston,Texas",714 WILDER ST,Houston,Texas,77008.0,Bayou/surface water/drainage ditch,Bayou/surface water/drainage ditch,0.0,Manhole,Manhole,Grease Blockage,Grease Blockage,2021-04-27,14:48,2021-04-27,14:48,0.0,Cleared Main Line;Cleaned and Disinfected,20210427.0,20210427.0,29.804742504,-95.389653973
88,10757,2021,"4720 CRAWFORD ST,Houston,Texas",4720 CRAWFORD ST,Houston,Texas,77004.0,"Contained On Site, not within 5 ft. of Bayou/Surface Water/Drainage Ditch","Contained On Site, not within 5 ft. of Bayou/Surface Water/Drainage Ditch",0.0,City Cleanout,City Cleanout,Grease Blockage,Grease Blockage,2021-04-27,17:51,2021-04-27,17:51,0.0,Cleared City Clean Out;Cleaned and Disinfected,20210427.0,20210427.0,29.728598907,-95.3798724599999
89,10759,2021,"5423 HEATHERBROOK DR,Houston,Texas",5423 HEATHERBROOK DR,Houston,Texas,77045.0,"Contained On Site, not within 5 ft. of Bayou/Surface Water/Drainage Ditch","Contained On Site, not within 5 ft. of Bayou/Surface Water/Drainage Ditch",0.0,Service Lateral,Service Lateral,Collection system structural blockage,Collection system structural blockage,2021-04-27,20:51,2021-04-27,20:51,0.0,Set Bypass Pump;Cleaned and Disinfected,20210427.0,20210427.0,29.6216778830001,-95.463748991
90,10764,2021,"2909 HAYES RD,Houston,Texas",2909 HAYES RD,Houston,Texas,77082.0,"Contained On Site, not within 5 ft. of Bayou/Surface Water/Drainage Ditch","Contained On Site, not within 5 ft. of Bayou/Surface Water/Drainage Ditch",129.0,Manhole,Manhole,Grease Blockage,Grease Blockage,2021-04-28,11:21,2021-04-28,13:30,1.0,Cleared Main Line;Cleaned and Disinfected,20210428.0,20210428.0,29.732200275,-95.5756379269999
91,10771,2021,"8603 FRIENDSHIP RD,Houston,Texas",8603 FRIENDSHIP RD,Houston,Texas,77080.0,"Contained On Site, not within 5 ft. of Bayou/Surface Water/Drainage Ditch","Contained On Site, not within 5 ft. of Bayou/Surface Water/Drainage Ditch",0.0,Private Cleanout,Private Cleanout,Grease Blockage,Grease Blockage,2021-04-28,20:25,2021-04-28,20:25,0.0,Cleared Main Line;Cleaned and Disinfected,20210428.0,20210428.0,29.819210088,-95.503072941
92,10774,2021,"544 YALE ST,Houston,Texas",544 YALE ST,Houston,Texas,77007.0,Storm Sewer (not contained),Storm Sewer (not contained),0.0,Service Lateral,Service Lateral,Rags/Wipes,Rags/Wipes,2021-04-29,10:07,2021-04-29,10:07,0.0,Cleared City Clean Out;Cleaned and Disinfected,20210429.0,20210429.0,29.7812674750001,-95.398755379
93,10777,2021,"516 E FRIAR TUCK LN,Houston,Texas",516 E FRIAR TUCK LN,Houston,Texas,77024.0,Storm Sewer (not contained),Storm Sewer (not contained),0.0,Service Lateral,Service Lateral,Collection system structural failure,Collection system structural failure,2021-04-29,12:52,2021-04-30,1:45,0.0,Cleaned and Disinfected,20210429.0,20210430.0,29.776685005,-95.469012575
94,10781,2021,"2909 HAYES RD,Houston,Texas",2909 HAYES RD,Houston,Texas,77082.0,Storm Sewer (not contained),Storm Sewer (not contained),129.0,Manhole,Manhole,Grease Blockage,Grease Blockage,2021-04-28,11:21,2021-04-28,13:30,1.0,Cleared Main Line;Cleaned and Disinfected,20210428.0,20210428.0,29.732200275,-95.5756379269999
95,10788,2021,"8039 DOCKAL RD,Houston,Texas",8039 DOCKAL RD,Houston,Texas,77028.0,Within 5 ft. of Bayou/Surface Water/Drainage Ditch,Within 5 ft. of Bayou/Surface Water/Drainage Ditch,0.0,Manhole,Manhole,Grease Blockage,Grease Blockage,2021-04-30,15:51,2021-05-01,18:14,0.0,Cleared Main Line;Cleaned and Disinfected,20210430.0,20210501.0,29.8287033060001,-95.277558507
96,10790,2021,"8630 BERTWOOD ST,Houston,Texas",8630 BERTWOOD ST,Houston,Texas,77016.0,"Contained On Site, not within 5 ft. of Bayou/Surface Water/Drainage Ditch","Contained On Site, not within 5 ft. of Bayou/Surface Water/Drainage Ditch",0.0,City Cleanout,City Cleanout,Rags/Wipes,Rags/Wipes,2021-05-01,10:13,2021-05-01,10:13,0.0,Cleaned and Disinfected;Cleared Service Lateral,20210501.0,20210501.0,29.839342162,-95.309614341
97,10792,2021,"3510 MOUNT PLEASANT ST,Houston,Texas",3510 MOUNT PLEASANT ST,Houston,Texas,77021.0,"Contained On Site, not within 5 ft. of Bayou/Surface Water/Drainage Ditch","Contained On Site, not within 5 ft. of Bayou/Surface Water/Drainage Ditch",0.0,City Cleanout,City Cleanout,Grease Blockage,Grease Blockage,2021-05-02,10:13,2021-05-02,10:13,0.0,Cleared City Clean Out;Cleaned and Disinfected,20210502.0,20210502.0,29.6877556110001,-95.373466422
98,10793,2021,"10610 TENNECO DR,Houston,Texas",10610 TENNECO DR,Houston,Texas,77099.0,"Contained On Site, not within 5 ft. of Bayou/Surface Water/Drainage Ditch","Contained On Site, not within 5 ft. of Bayou/Surface Water/Drainage Ditch",52.5,Manhole,Manhole,Grease Blockage,Grease Blockage,2021-05-02,10:27,2021-05-02,13:57,0.0,Cleared Main Line;Cleaned and Disinfected,20210502.0,20210502.0,29.6663764350001,-95.6132150889999
99,10803,2021,"6002 W 43RD ST,Houston,Texas",6002 W 43RD ST,Houston,Texas,77092.0,"Contained On Site, not within 5 ft. of Bayou/Surface Water/Drainage Ditch","Contained On Site, not within 5 ft. of Bayou/Surface Water/Drainage Ditch",142.0,Manhole,Manhole,Grease Blockage,Grease Blockage,2021-05-03,10:00,2021-05-03,12:22,1.0,Cleared Main Line;Cleaned and Disinfected,20210503.0,20210503.0,29.833077486,-95.4788270289999
100,10807,2021,"5709 BRADY ST,Houston,Texas",5709 BRADY ST,Houston,Texas,77011.0,Bayou/surface water/drainage ditch,Bayou/surface water/drainage ditch,0.0,City Cleanout,City Cleanout,Rags/Wipes,Rags/Wipes,2021-05-03,12:02,2021-05-03,12:02,0.0,Cleared Main Line;Cleaned and Disinfected,20210503.0,20210503.0,29.7437987340001,-95.3168640169999
101,10812,2021,"633 A 21ST ST,Houston,Texas",633 A 21ST ST,Houston,Texas,77008.0,"Contained On Site, not within 5 ft. of Bayou/Surface Water/Drainage Ditch","Contained On Site, not within 5 ft. of Bayou/Surface Water/Drainage Ditch",0.0,Service Lateral,Service Lateral,Collection system structural blockage,Collection system structural blockage,2021-05-03,15:31,2021-05-03,15:31,0.0,Cleaned and Disinfected,20210503.0,20210503.0,29.804857084,-95.409322779
102,10816,2021,"4202 WALKER ST,Houston,Texas",4202 WALKER ST,Houston,Texas,77023.0,"Contained On Site, not within 5 ft. of Bayou/Surface Water/Drainage Ditch","Contained On Site, not within 5 ft. of Bayou/Surface Water/Drainage Ditch",0.0,Service Lateral,Service Lateral,Collection system structural failure,Collection system structural failure,2021-05-03,21:04,2021-05-03,21:04,0.0,Cleaned and Disinfected,20210503.0,20210503.0,29.742594631,-95.336168462
103,10818,2021,"715 ROUSE ST,Houston,Texas",715 ROUSE ST,Houston,Texas,77020.0,"Contained On Site, not within 5 ft. of Bayou/Surface Water/Drainage Ditch","Contained On Site, not within 5 ft. of Bayou/Surface Water/Drainage Ditch",0.0,Service Lateral,Service Lateral,Collection system structural failure,Collection system structural failure,2021-05-03,21:58,2021-05-03,21:58,0.0,Cleared Service Lateral;Cleaned and Disinfected,20210503.0,20210503.0,29.7759434160001,-95.305243933
104,10821,2021,"4839 SCENIC DR,Houston,Texas",4839 SCENIC DR,Houston,Texas,77048.0,Storm Sewer (not contained),Storm Sewer (not contained),900.0,Manhole,Manhole,Grease Blockage,Grease Blockage,2021-05-04,9:28,2021-05-04,12:08,6.0,Cleared Main Line;Cleaned and Disinfected,20210504.0,20210504.0,29.647956784,-95.3525826589999
105,10826,2021,"4406 TALINA WAY,Houston,Texas",4406 TALINA WAY,Houston,Texas,77041.0,Storm Sewer (not contained),Storm Sewer (not contained),0.0,Manhole,Manhole,Grease Blockage,Grease Blockage,2021-05-04,11:08,2021-05-04,11:08,0.0,Cleared Main Line;Cleaned and Disinfected,20210504.0,20210504.0,29.834337998,-95.543912507
106,10831,2021,"931 ENCLAVE LAKE DR,Houston,Texas",931 ENCLAVE LAKE DR,Houston,Texas,77077.0,"Contained On Site, not within 5 ft. of Bayou/Surface Water/Drainage Ditch","Contained On Site, not within 5 ft. of Bayou/Surface Water/Drainage Ditch",0.0,Private Cleanout,Private Cleanout,Collection system structural blockage,Collection system structural blockage,2021-05-04,14:52,2021-05-04,14:52,0.0,Cleared Main Line;Cleaned and Disinfected,20210504.0,20210504.0,29.7710510250001,-95.6264704819999
107,10836,2021,"9701 FORUM PARK DR,Houston,Texas",9701 FORUM PARK DR,Houston,Texas,77036.0,Storm Sewer (not contained),Storm Sewer (not contained),410.0,Private Cleanout,Private Cleanout,Grease Blockage,Grease Blockage,2021-05-05,9:49,2021-05-05,13:14,2.0,Cleared Service Lateral;Cleaned and Disinfected,20210505.0,20210505.0,29.673914364,-95.554966226
108,10837,2021,"709 HARVEST MOON LN,Houston,Texas",709 HARVEST MOON LN,Houston,Texas,77077.0,"Contained On Site, not within 5 ft. of Bayou/Surface Water/Drainage Ditch","Contained On Site, not within 5 ft. of Bayou/Surface Water/Drainage Ditch",2289.0,Force Main,Force Main,Collection system structural failure,Collection system structural failure,2021-05-05,9:45,2021-05-07,13:04,1.0,Contain All or Portion of Spill;Cleaned and Disinfected,20210505.0,20210507.0,29.760096758,-95.60003199
109,10843,2021,"9762 TANNER RD,Houston,Texas",9762 TANNER RD,Houston,Texas,77041.0,"Contained On Site, not within 5 ft. of Bayou/Surface Water/Drainage Ditch","Contained On Site, not within 5 ft. of Bayou/Surface Water/Drainage Ditch",0.0,Service Lateral,Service Lateral,Collection system structural blockage,Collection system structural blockage,2021-05-05,17:50,2021-05-05,17:50,0.0,Cleaned and Disinfected;Set Bypass Pump,20210505.0,20210505.0,29.8500574610001,-95.534379015
110,10850,2021,"7228 CORPUS CHRISTI ST,Houston,Texas",7228 CORPUS CHRISTI ST,Houston,Texas,77020.0,Bayou/surface water/drainage ditch,Bayou/surface water/drainage ditch,0.0,Manhole,Manhole,Grease Blockage,Grease Blockage,2021-05-06,12:12,2021-05-06,12:12,0.0,Cleared Main Line;Cleaned and Disinfected,20210506.0,20210506.0,29.7821104430001,-95.2965925519999
111,10853,2021,"4007 TELEPHONE RD,Houston,Texas",4007 TELEPHONE RD,Houston,Texas,77087.0,Storm Sewer (not contained),Storm Sewer (not contained),238.0,City Cleanout,City Cleanout,Rags/Wipes,Rags/Wipes,2021-05-06,16:59,2021-05-06,18:58,2.0,Cleared Service Lateral;Cleaned and Disinfected,20210506.0,20210506.0,29.7056628760001,-95.3078547279999
112,10859,2021,"8117 HOMEWOOD LN,Houston,Texas",8117 HOMEWOOD LN,Houston,Texas,77028.0,Within 5 ft. of Bayou/Surface Water/Drainage Ditch,Within 5 ft. of Bayou/Surface Water/Drainage Ditch,0.0,City Cleanout,City Cleanout,Collection system structural blockage,Collection system structural blockage,2021-05-07,12:04,2021-05-07,12:04,0.0,Cleaned and Disinfected,20210507.0,20210507.0,29.8423979100001,-95.279515179
113,10860,2021,"7920 BRUMBLAY ST,Houston,Texas",7920 BRUMBLAY ST,Houston,Texas,77012.0,Storm Sewer (not contained),Storm Sewer (not contained),0.0,City Cleanout,City Cleanout,"Collection system
structural blockage",Collection system structural blockage,2021-05-07,14:35,2021-05-07,14:35,0.0,Cleaned and Disinfected;Set Bypass Pump,20210507.0,20210507.0,29.7080330270001,-95.280062265
114,10862,2021,"12023 BISSONNET ST,Houston,Texas",12023 BISSONNET ST,Houston,Texas,77099.0,Storm Sewer (not contained),Storm Sewer (not contained),363.0,Manhole,Manhole,Grease Blockage,Grease Blockage,2021-05-08,9:00,2021-05-08,11:33,2.0,Cleaned and Disinfected;Cleared Main Line,20210508.0,20210508.0,29.6753018630001,-95.590534162
115,10874,2021,"1622 CRANWAY DR,Houston,Texas",1622 CRANWAY DR,Houston,Texas,77055.0,"Contained On Site, not within 5 ft. of Bayou/Surface Water/Drainage Ditch","Contained On Site, not within 5 ft. of Bayou/Surface Water/Drainage Ditch",0.0,City Cleanout,City Cleanout,Rags/Wipes,Rags/Wipes,2021-05-09,18:24,2021-05-09,18:24,0.0,Cleaned and Disinfected;Cleared City Clean Out,20210509.0,20210509.0,29.799548155,-95.507322231
116,10884,2021,"2613 LORRAINE ST,Houston,Texas",2613 LORRAINE ST,Houston,Texas,77026.0,"Contained On Site, not within 5 ft. of Bayou/Surface Water/Drainage Ditch","Contained On Site, not within 5 ft. of Bayou/Surface Water/Drainage Ditch",334.0,Service Lateral,Service Lateral,Collection system structural failure,Collection system structural failure,2021-05-11,8:43,2021-05-11,11:30,2.0,Cleaned and Disinfected;Set Bypass Pump,20210511.0,20210511.0,29.778593019,-95.343333313
117,10889,2021,"2406 CANAL ST,Houston,Texas",2406 CANAL ST,Houston,Texas,77003.0,Storm Sewer (not contained),Storm Sewer (not contained),879.0,Manhole,Manhole,Collection system temporary blockage,Collection system temporary blockage,2021-05-11,13:09,2021-05-12,9:20,1.0,Set Bypass Pump;Cleaned and Disinfected;Cleared Main Line,20210511.0,20210512.0,29.7576318490001,-95.346007308
118,10891,2021,"6302 BRIAR GLADE DR,Houston,Texas",6302 BRIAR GLADE DR,Houston,Texas,77072.0,Storm Sewer (not contained),Storm Sewer (not contained),2484.0,Manhole,Manhole,Grease Blockage,Grease Blockage,2021-05-11,14:48,2021-05-12,11:30,2.0,Cleared Main Line;Cleaned and Disinfected,20210511.0,20210512.0,29.7115453380001,-95.57035473
119,10893,2021,"385 N POST OAK LN,Houston,Texas",385 N POST OAK LN,Houston,Texas,77024.0,Storm Sewer (not contained),Storm Sewer (not contained),0.0,Manhole,Manhole,Collection system structural failure,Collection system structural failure,2021-05-11,18:30,2021-05-11,18:30,0.0,Cleaned and Disinfected,20210511.0,20210511.0,29.7761754690001,-95.457824411
120,10894,2021,"4506 TONAWANDA DR,Houston,Texas",4506 TONAWANDA DR,Houston,Texas,77035.0,"Contained On Site, not within 5 ft. of Bayou/Surface Water/Drainage Ditch","Contained On Site, not within 5 ft. of Bayou/Surface Water/Drainage Ditch",0.0,City Cleanout,City Cleanout,Grease Blockage,Grease Blockage,2021-05-11,20:01,2021-05-11,20:01,0.0,Cleared City Clean Out;Cleaned and Disinfected,20210511.0,20210511.0,29.66617045,-95.453154266
121,10895,2021,"12336 ORMANDY ST,Houston,Texas",12336 ORMANDY ST,Houston,Texas,77085.0,"Contained On Site, not within 5 ft. of Bayou/Surface Water/Drainage Ditch","Contained On Site, not within 5 ft. of Bayou/Surface Water/Drainage Ditch",0.0,Manhole,Manhole,Grease Blockage,Grease Blockage,2021-05-11,20:08,2021-05-11,20:08,0.0,Cleared Main Line;Cleaned and Disinfected,20210511.0,20210511.0,29.6286662110001,-95.50596453
122,10896,2021,"9102 LAKE PARK DR,Houston,Texas",9102 LAKE PARK DR,Houston,Texas,77078.0,"Contained On Site, not within 5 ft. of Bayou/Surface Water/Drainage Ditch","Contained On Site, not within 5 ft. of Bayou/Surface Water/Drainage Ditch",0.0,Force Main,Force Main,Collection system structural failure,Collection system structural failure,2021-05-11,20:57,2021-05-11,20:57,0.0,Contain All or Portion of Spill;Cleaned and Disinfected;Post Warning Signs,20210511.0,20210511.0,29.843590455,-95.261927734
123,10897,2021,"1221 THERESA ST,Houston,Texas",1221 THERESA ST,Houston,Texas,77051.0,Storm Sewer (not contained),Storm Sewer (not contained),0.0,City Cleanout,City Cleanout,Rags/Wipes,Rags/Wipes,2021-05-12,9:12,2021-05-12,9:12,0.0,Cleared Service Lateral;Cleaned and Disinfected,20210512.0,20210512.0,29.6733099030001,-95.364911601
124,10899,2021,"838 GREENS RD,Houston,Texas",838 GREENS RD,Houston,Texas,77060.0,Storm Sewer (not contained),Storm Sewer (not contained),2000.0,Private Cleanout,Private Cleanout,"WWTP Mechanical
Failure","WWTP Mechanical
Failure",2021-05-12,23:44,2021-05-13,8:39,4.0,Cleared Main Line,20210512.0,20210513.0,29.950543027,-95.3950856979999
125,10908,2021,"8343 GLENCREST ST,Houston,Texas",8343 GLENCREST ST,Houston,Texas,77061.0,Storm Sewer (not contained),Storm Sewer (not contained),0.0,Manhole,Manhole,Grease Blockage,Grease Blockage,2021-05-13,9:09,2021-05-13,9:09,0.0,Cleared Main Line;Cleaned and Disinfected,20210513.0,20210513.0,29.670486585,-95.271922767
126,10909,2021,"9855 PAGEWOOD LN,Houston,Texas",9855 PAGEWOOD LN,Houston,Texas,77042.0,Storm Sewer (not contained),Storm Sewer (not contained),672.0,Manhole,Manhole,Grease Blockage,Grease Blockage,2021-05-13,9:05,2021-05-13,12:48,3.0,Cleared Main Line;Cleaned and Disinfected,20210513.0,20210513.0,29.7253225040001,-95.543961542
127,10919,2021,"6303 BRIAR GLADE DR,Houston,Texas",6303 BRIAR GLADE DR,Houston,Texas,77072.0,Storm Sewer (not contained),Storm Sewer (not contained),2484.0,Manhole,Manhole,Grease Blockage,Grease Blockage,2021-05-11,14:48,2021-05-12,11:30,2.0,Cleared Main Line;Cleaned and Disinfected,20210511.0,20210512.0,29.711572663,-95.570300164
128,10920,2021,"5201 GULFTON ST,Houston,Texas",5201 GULFTON ST,Houston,Texas,77081.0,"Contained On Site, not within 5 ft. of Bayou/Surface Water/Drainage Ditch","Contained On Site, not within 5 ft. of Bayou/Surface Water/Drainage Ditch",0.0,City Cleanout,City Cleanout,Rags/Wipes,Rags/Wipes,2021-05-13,18:44,2021-05-13,18:44,0.0,Cleared City Clean Out;Cleaned and Disinfected,20210513.0,20210513.0,29.7164755310001,-95.470646543
129,10924,2021,"6767 TELEPHONE RD,Houston,Texas",6767 TELEPHONE RD,Houston,Texas,77061.0,"Contained On Site, not within 5 ft. of Bayou/Surface Water/Drainage Ditch","Contained On Site, not within 5 ft. of Bayou/Surface Water/Drainage Ditch",2314.0,Manhole,Manhole,Grease Blockage,Grease Blockage,2021-05-14,16:38,2021-05-15,11:55,2.0,Cleared Main Line;Cleaned and Disinfected,20210514.0,20210515.0,29.663352999,-95.288882458
130,10927,2021,"4117 VAUGHN ST,Houston,Texas",4117 VAUGHN ST,Houston,Texas,77016.0,"Contained On Site, not within 5 ft. of Bayou/Surface Water/Drainage Ditch","Contained On Site, not within 5 ft. of Bayou/Surface Water/Drainage Ditch",1253.0,Manhole,Manhole,Grease Blockage,Grease Blockage,2021-05-15,15:40,2021-05-16,12:33,1.0,Cleared Main Line;Cleaned and Disinfected,20210515.0,20210516.0,29.8261810230001,-95.32970174
131,10928,2021,"1210 NORTHWOOD ST,Houston,Texas",1210 NORTHWOOD ST,Houston,Texas,77009.0,Bayou/surface water/drainage ditch,Bayou/surface water/drainage ditch,1697.0,Service Lateral,Service Lateral,"Collection system
structural blockage",Collection system structural blockage,2021-05-14,14:16,2021-05-15,18:32,1.0,Cleaned and Disinfected;Set Bypass Pump,20210514.0,20210515.0,29.80258408,-95.37806574
132,10929,2021,"9310 COOK RD,Houston,Texas",9310 COOK RD,Houston,Texas,77099.0,"Contained On Site, not within 5 ft. of Bayou/Surface Water/Drainage Ditch","Contained On Site, not within 5 ft. of Bayou/Surface Water/Drainage Ditch",0.0,Force Main,Force Main,Collection system structural failure,Collection system structural failure,2021-05-16,13:37,2021-05-16,13:37,0.0,Contain All or Portion of Spill;Post Warning Signs,20210516.0,20210516.0,29.6778313580001,-95.5958486759999
133,10936,2021,"10702 RUBIN ST,Houston,Texas",10702 RUBIN ST,Houston,Texas,77047.0,Storm Sewer (not contained),Storm Sewer (not contained),0.0,Manhole,Manhole,"Collection system
structural blockage",Collection system structural blockage,2021-05-17,15:27,2021-05-17,15:27,0.0,Cleaned and Disinfected;Cleared Main Line,20210517.0,20210517.0,29.643479171,-95.359672157
134,10938,2021,"206 FIR RIDGE DR,Houston,Texas",206 FIR RIDGE DR,Houston,Texas,77336.0,"Contained On Site, not within 5 ft. of Bayou/Surface Water/Drainage Ditch","Contained On Site, not within 5 ft. of Bayou/Surface Water/Drainage Ditch",7.2,Private Cleanout,Private Cleanout,Collection system  wet weather,Collection system  wet weather,2021-05-18,10:20,2021-05-18,10:56,0.0,Cleaned and Disinfected,20210518.0,20210518.0,30.0285852100001,-95.120653051
135,10940,2021,"8410 W BARTELL DR,Houston,Texas",8410 W BARTELL DR,Houston,Texas,77054.0,Storm Sewer (not contained),Storm Sewer (not contained),528.0,Manhole,Manhole,Grease Blockage,Grease Blockage,2021-05-18,10:34,2021-05-18,13:00,4.0,Cleared Main Line;Cleaned and Disinfected,20210518.0,20210518.0,29.68115306,-95.421653481
136,10948,2021,"15122 CAROL CHASE CIR,Houston,Texas",15122 CAROL CHASE CIR,Houston,Texas,77489.0,"Contained On Site, not within 5 ft. of Bayou/Surface Water/Drainage Ditch","Contained On Site, not within 5 ft. of Bayou/Surface Water/Drainage Ditch",0.0,Private Cleanout,Private Cleanout,Collection system  wet weather,Collection system  wet weather,2021-05-18,14:39,2021-05-18,14:39,0.0,Cleaned and Disinfected,20210518.0,20210518.0,29.6065055060001,-95.502501547
137,10949,2021,"5038 CHENNAULT RD,Houston,Texas",5038 CHENNAULT RD,Houston,Texas,77033.0,Bayou/surface water/drainage ditch,Bayou/surface water/drainage ditch,0.0,Manhole,Manhole,Collection system  wet weather,Collection system  wet weather,2021-05-18,15:19,2021-05-18,15:19,0.0,Cleaned and Disinfected,20210518.0,20210518.0,29.6823517980001,-95.343220409
138,10950,2021,"15111 WELLMAN LN,Houston,Texas",15111 WELLMAN LN,Houston,Texas,77060.0,"Contained On Site, not within 5 ft. of Bayou/Surface Water/Drainage Ditch","Contained On Site, not within 5 ft. of Bayou/Surface Water/Drainage Ditch",0.0,Private Cleanout,Private Cleanout,Grease Blockage,Grease Blockage,2021-05-18,16:43,2021-05-18,16:43,0.0,Cleared Main Line;Cleaned and Disinfected,20210518.0,20210518.0,29.9185949000001,-95.40437687
139,10951,2021,"12062 WHITE CAP LN,Houston,Texas",12062 WHITE CAP LN,Houston,Texas,77072.0,Storm Sewer (not contained),Storm Sewer (not contained),18652.0,Manhole,Manhole,Grease Blockage,Grease Blockage,2021-05-18,16:59,2021-05-20,18:27,6.0,Cleared Main Line;Cleaned and Disinfected,20210518.0,20210520.0,29.6903903780001,-95.591055432
140,10955,2021,"3601 TELEPHONE RD,Houston,Texas",3601 TELEPHONE RD,Houston,Texas,77023.0,Storm Sewer (not contained),Storm Sewer (not contained),9140.0,Manhole,Manhole,Collection system  wet weather,Collection system  wet weather,2021-05-19,7:24,2021-05-19,10:53,44.0,Post Warning Signs;Cleaned and Disinfected,20210519.0,20210519.0,29.7094564840001,-95.3137312809999
141,10956,2021,"5602 LAWSON ST,Houston,Texas",5602 LAWSON ST,Houston,Texas,77023.0,Storm Sewer (not contained),Storm Sewer (not contained),378.0,Manhole,Manhole,Collection system  wet weather,Collection system  wet weather,2021-05-19,7:32,2021-05-19,10:41,2.0,Cleaned and Disinfected;Post Warning Signs,20210519.0,20210519.0,29.723957721,-95.318735193
142,10957,2021,"5645 TRUETT ST,Houston,Texas",5645 TRUETT ST,Houston,Texas,77023.0,Storm Sewer (not contained),Storm Sewer (not contained),182.0,Manhole,Manhole,Collection system  wet weather,Collection system  wet weather,2021-05-19,7:35,2021-05-19,9:05,2.0,Cleaned and Disinfected;Post Warning Signs,20210519.0,20210519.0,29.724066728,-95.316487167
143,10958,2021,"5603 BARREMORE ST,Houston,Texas",5603 BARREMORE ST,Houston,Texas,77023.0,Storm Sewer (not contained),Storm Sewer (not contained),724.0,Manhole,Manhole,Collection system  wet weather,Collection system  wet weather,2021-05-19,7:39,2021-05-19,10:40,4.0,Cleaned and Disinfected;Post Warning Signs,20210519.0,20210519.0,29.722707686,-95.3192228519999
144,10959,2021,"5649 BARREMORE ST,Houston,Texas",5649 BARREMORE ST,Houston,Texas,77023.0,Storm Sewer (not contained),Storm Sewer (not contained),266.0,Manhole,Manhole,Collection system  wet weather,Collection system  wet weather,2021-05-19,7:41,2021-05-19,10:36,2.0,Cleaned and Disinfected;Post Warning Signs,20210519.0,20210519.0,29.7220756070001,-95.317101644
145,10960,2021,"3426 PARKER RD,Houston,Texas",3426 PARKER RD,Houston,Texas,77093.0,Storm Sewer (not contained),Storm Sewer (not contained),26525.0,Manhole,Manhole,Collection system  wet weather,Collection system  wet weather,2021-05-19,8:09,2021-05-19,17:06,49.0,Cleaned and Disinfected;Post Warning Signs,20210519.0,20210519.0,29.859225806,-95.335071637
146,10961,2021,"10330 EASTEX FWY,Houston,Texas",10330 EASTEX FWY,Houston,Texas,77093.0,Storm Sewer (not contained),Storm Sewer (not contained),36335.0,Manhole,Manhole,Collection system  wet weather,Collection system  wet weather,2021-05-19,8:43,2021-05-19,17:50,66.0,Cleaned and Disinfected;Post Warning Signs,20210519.0,20210519.0,29.861749671,-95.332866495
147,10962,2021,"1222 WRIGHTWOOD ST,Houston,Texas",1222 WRIGHTWOOD ST,Houston,Texas,77009.0,Storm Sewer (not contained),Storm Sewer (not contained),8250.0,Manhole,Manhole,Collection system  wet weather,Collection system  wet weather,2021-05-19,9:01,2021-05-19,11:46,50.0,Cleaned and Disinfected;Post Warning Signs,20210519.0,20210519.0,29.781040143,-95.369872539
148,10963,2021,"1424 WRIGHTWOOD ST,Houston,Texas",1424 WRIGHTWOOD ST,Houston,Texas,77009.0,Storm Sewer (not contained),Storm Sewer (not contained),4125.0,Manhole,Manhole,Collection system  wet weather,Collection system  wet weather,2021-05-19,9:04,2021-05-19,11:49,25.0,Cleaned and Disinfected;Post Warning Signs,20210519.0,20210519.0,29.781034656,-95.3713121389999
149,10964,2021,"1301 WAYSIDE DR,Houston,Texas",1301 WAYSIDE DR,Houston,Texas,77011.0,Storm Sewer (not contained),Storm Sewer (not contained),1210.0,Manhole,Manhole,Collection system  wet weather,Collection system  wet weather,2021-05-19,9:11,2021-05-19,13:12,5.0,Cleaned and Disinfected;Post Warning Signs,20210519.0,20210519.0,29.745163593,-95.3029391109999
150,10965,2021,"6820 LYONS AVE,Houston,Texas",6820 LYONS AVE,Houston,Texas,77020.0,Storm Sewer (not contained),Storm Sewer (not contained),737.0,Manhole,Manhole,Collection system  wet weather,Collection system  wet weather,2021-05-19,9:18,2021-05-19,13:12,3.0,Cleaned and Disinfected;Post Warning Signs,20210519.0,20210519.0,29.7764670340001,-95.3014849849999
151,10966,2021,"308 WASHINGTON AVE,Houston,Texas",308 WASHINGTON AVE,Houston,Texas,77002.0,Bayou/surface water/drainage ditch,Bayou/surface water/drainage ditch,24050.0,Manhole,Manhole,Collection system  wet weather,Collection system  wet weather,2021-05-19,9:37,2021-05-19,14:31,82.0,Cleaned and Disinfected;Post Warning Signs,20210519.0,20210519.0,29.765427318,-95.361434913
152,10968,2021,"1 N MAIN ST,Houston,Texas",1 N MAIN ST,Houston,Texas,77002.0,Storm Sewer (not contained),Storm Sewer (not contained),5300.0,Manhole,Manhole,Collection system  wet weather,Collection system  wet weather,2021-05-19,9:43,2021-05-19,11:53,41.0,Post Warning Signs;Cleaned and Disinfected,20210519.0,20210519.0,30.0482373780001,-95.185461424
153,10970,2021,"24119 GLENGYLE CT,Houston,Texas",24119 GLENGYLE CT,Houston,Texas,77336.0,"Contained On Site, not within 5 ft. of Bayou/Surface Water/Drainage Ditch","Contained On Site, not within 5 ft. of Bayou/Surface Water/Drainage Ditch",0.0,Private Cleanout,Private Cleanout,Collection system  wet weather,Collection system  wet weather,2021-05-19,12:27,2021-05-19,12:27,0.0,Cleaned and Disinfected,20210519.0,20210519.0,30.021331091,-95.1192674389999
154,10972,2021,"24115 GLENGYLE CT,Houston,Texas",24115 GLENGYLE CT,Houston,Texas,77336.0,"Contained On Site, not within 5 ft. of Bayou/Surface Water/Drainage Ditch","Contained On Site, not within 5 ft. of Bayou/Surface Water/Drainage Ditch",0.0,Private Cleanout,Private Cleanout,Collection system  wet weather,Collection system  wet weather,2021-05-19,13:31,2021-05-19,13:31,0.0,Cleaned and Disinfected,20210519.0,20210519.0,30.021163244,-95.11920491
155,10973,2021,"24007 GLENGYLE CT,Houston,Texas",24007 GLENGYLE CT,Houston,Texas,77336.0,"Contained On Site, not within 5 ft. of Bayou/Surface Water/Drainage Ditch","Contained On Site, not within 5 ft. of Bayou/Surface Water/Drainage Ditch",0.0,Private Cleanout,Private Cleanout,Collection system  wet weather,Collection system  wet weather,2021-05-19,13:55,2021-05-19,13:55,0.0,Cleaned and Disinfected,20210519.0,20210519.0,30.020771599,-95.1190588969999
156,10974,2021,"7546 JASON ST,Houston,Texas",7546 JASON ST,Houston,Texas,77074.0,Storm Sewer (not contained),Storm Sewer (not contained),1164.0,Manhole,Manhole,Collection system structural failure,Collection system structural failure,2021-05-19,13:52,2021-05-19,23:34,2.0,Cleared Main Line;Cleaned and Disinfected;Set Bypass Pump,20210519.0,20210519.0,29.684519777,-95.5201359819999
157,10976,2021,"203 FIR RIDGE DR,Houston,Texas",203 FIR RIDGE DR,Houston,Texas,77336.0,"Contained On Site, not within 5 ft. of Bayou/Surface Water/Drainage Ditch","Contained On Site, not within 5 ft. of Bayou/Surface Water/Drainage Ditch",0.0,Private Cleanout,Private Cleanout,Collection system  wet weather,Collection system  wet weather,2021-05-19,17:08,2021-05-19,17:08,0.0,Cleaned and Disinfected,20210519.0,20210519.0,30.0286586350001,-95.120716083
158,10982,2021,"11911 KIRKNOLL DR,Houston,Texas",11911 KIRKNOLL DR,Houston,Texas,77089.0,Storm Sewer (not contained),Storm Sewer (not contained),203.0,Private Cleanout,Private Cleanout,Grease Blockage,Grease Blockage,2021-05-20,9:05,2021-05-20,12:28,1.0,Cleared Main Line;Cleaned and Disinfected,20210520.0,20210520.0,29.603231032,-95.221588432
159,10983,2021,"14919 WELLMAN LN,Houston,Texas",14919 WELLMAN LN,Houston,Texas,77060.0,Storm Sewer (not contained),Storm Sewer (not contained),2110.0,Manhole,Manhole,Grease Blockage,Grease Blockage,2021-05-20,9:18,2021-05-20,16:20,5.0,Cleared Main Line;Cleaned and Disinfected,20210520.0,20210520.0,29.9166795940001,-95.403705228
160,10984,2021,"3033 BUTTERCUP ST,Houston,Texas",3033 BUTTERCUP ST,Houston,Texas,77063.0,"Contained On Site, not within 5 ft. of Bayou/Surface Water/Drainage Ditch","Contained On Site, not within 5 ft. of Bayou/Surface Water/Drainage Ditch",0.0,Private Cleanout,Private Cleanout,Grease Blockage,Grease Blockage,2021-05-20,11:18,2021-05-20,11:18,0.0,Cleared Main Line;Cleaned and Disinfected,20210520.0,20210520.0,29.732102877,-95.516860166
161,10985,2021,"9911 ALGIERS RD,Houston,Texas",9911 ALGIERS RD,Houston,Texas,77041.0,Storm Sewer (not contained),Storm Sewer (not contained),194.0,Manhole,Manhole,Grease Blockage,Grease Blockage,2021-05-20,11:51,2021-05-20,15:05,1.0,Cleared Main Line;Cleaned and Disinfected,20210520.0,20210520.0,29.845360075,-95.537967726
162,10986,2021,"6429 INNSBRUCK MEADOWS LN,Houston,Texas",6429 INNSBRUCK MEADOWS LN,Houston,Texas,77048.0,Storm Sewer (not contained),Storm Sewer (not contained),645.0,Manhole,Manhole,Collection system  wet weather,Collection system  wet weather,2021-05-20,12:00,2021-05-20,16:18,3.0,Cleaned and Disinfected;Post Warning Signs,20210520.0,20210520.0,29.613379212,-95.3061993859999
163,10987,2021,"8410 W BARTELL DR,Houston,Texas",8410 W BARTELL DR,Houston,Texas,77054.0,Storm Sewer (not contained),Storm Sewer (not contained),528.0,Manhole,Manhole,Grease Blockage,Grease Blockage,2021-05-18,10:34,2021-05-18,13:00,4.0,Cleared Main Line;Cleaned and Disinfected,20210518.0,20210518.0,29.68115306,-95.421653481
164,10989,2021,"7711 BELLFORT ST,Houston,Texas",7711 BELLFORT ST,Houston,Texas,77061.0,Storm Sewer (not contained),Storm Sewer (not contained),145.0,City Cleanout,City Cleanout,Grease Blockage,Grease Blockage,2021-05-20,13:35,2021-05-20,16:00,1.0,Cleared City Clean Out;Cleaned and Disinfected,20210520.0,20210520.0,29.6724375150001,-95.280520504
165,10991,2021,"7546 JASON ST,Houston,Texas",7546 JASON ST,Houston,Texas,77074.0,Storm Sewer (not contained),Storm Sewer (not contained),136.0,Manhole,Manhole,Collection system structural failure,Collection system structural failure,2021-05-20,13:21,2021-05-20,14:29,2.0,Set Bypass Pump;Cleaned and Disinfected;Cleared Main Line,20210520.0,20210520.0,29.684519777,-95.5201359819999
166,10993,2021,"24203 SUNNY GLEN DR,Houston,Texas",24203 SUNNY GLEN DR,Houston,Texas,77336.0,Within 5 ft. of Bayou/Surface Water/Drainage Ditch,Within 5 ft. of Bayou/Surface Water/Drainage Ditch,0.0,Manhole,Manhole,Collection system  wet weather,Collection system  wet weather,2021-05-20,16:29,2021-05-20,16:29,0.0,Cleaned and Disinfected,20210520.0,20210520.0,30.0220599400001,-95.117250586
167,10995,2021,"8015 COLGATE ST,Houston,Texas",8015 COLGATE ST,Houston,Texas,77061.0,"Contained On Site, not within 5 ft. of Bayou/Surface Water/Drainage Ditch","Contained On Site, not within 5 ft. of Bayou/Surface Water/Drainage Ditch",0.0,Private Cleanout,Private Cleanout,Grease Blockage,Grease Blockage,2021-05-20,16:56,2021-05-20,16:56,0.0,Cleared Main Line,20210520.0,20210520.0,29.677582369,-95.280319757
168,10997,2021,"4102 MOWERY RD,Houston,Texas",4102 MOWERY RD,Houston,Texas,77047.0,"Contained On Site, not within 5 ft. of Bayou/Surface Water/Drainage Ditch","Contained On Site, not within 5 ft. of Bayou/Surface Water/Drainage Ditch",0.0,Private Cleanout,Private Cleanout,Rags/Wipes,Rags/Wipes,2021-05-20,18:53,2021-05-20,18:53,0.0,Cleared Service Lateral;Cleaned and Disinfected,20210520.0,20210520.0,29.6359918680001,-95.363022487
169,10999,2021,"6614 WESTON ST,Houston,Texas",6614 WESTON ST,Houston,Texas,77021.0,"Contained On Site, not within 5 ft. of Bayou/Surface Water/Drainage Ditch","Contained On Site, not within 5 ft. of Bayou/Surface Water/Drainage Ditch",0.0,City Cleanout,City Cleanout,Rags/Wipes,Rags/Wipes,2021-05-20,19:06,2021-05-20,19:06,0.0,Cleared Service Lateral;Cleaned and Disinfected,20210520.0,20210520.0,29.690545695,-95.346422463
170,11001,2021,"6923 OAK BOUGH DR,Houston,Texas",6923 OAK BOUGH DR,Houston,Texas,77088.0,Storm Sewer (not contained),Storm Sewer (not contained),242.0,Manhole,Manhole,Rags/Wipes,Rags/Wipes,2021-05-21,9:49,2021-05-21,11:50,2.0,Cleared Main Line;Cleaned and Disinfected,20210521.0,20210521.0,29.8704740590001,-95.48364436
171,11003,2021,"16010 LOGAN ROCK RD,Houston,Texas",16010 LOGAN ROCK RD,Houston,Texas,77489.0,"Contained On Site, not within 5 ft. of Bayou/Surface Water/Drainage Ditch","Contained On Site, not within 5 ft. of Bayou/Surface Water/Drainage Ditch",187.0,Manhole,Manhole,Grease Blockage,Grease Blockage,2021-05-21,10:48,2021-05-21,13:55,1.0,Cleaned and Disinfected;Cleared Main Line,20210521.0,20210521.0,29.5934111720001,-95.4895018019999
172,11006,2021,"10147 VALLEY WIND DR,Houston,Texas",10147 VALLEY WIND DR,Houston,Texas,77078.0,"Contained On Site, not within 5 ft. of Bayou/Surface Water/Drainage Ditch","Contained On Site, not within 5 ft. of Bayou/Surface Water/Drainage Ditch",0.0,City Cleanout,City Cleanout,Grease Blockage,Grease Blockage,2021-05-21,12:11,2021-05-21,12:11,0.0,Cleared Main Line;Cleaned and Disinfected,20210521.0,20210521.0,29.8476680740001,-95.236028356
173,11010,2021,"2905 #5 BAER ST,Houston,Texas",2905 #5 BAER ST,Houston,Texas,77020.0,"Contained On Site, not within 5 ft. of Bayou/Surface Water/Drainage Ditch","Contained On Site, not within 5 ft. of Bayou/Surface Water/Drainage Ditch",0.0,City Cleanout,City Cleanout,Rags/Wipes,Rags/Wipes,2021-05-21,14:11,2021-05-21,14:11,0.0,Cleared City Clean Out;Cleaned and Disinfected,20210521.0,20210521.0,29.7679869780001,-95.34021491
174,11011,2021,"90 NORTHPOINT DR,Houston,Texas",90 NORTHPOINT DR,Houston,Texas,77060.0,Storm Sewer (not contained),Storm Sewer (not contained),0.0,Manhole,Manhole,Grease Blockage,Grease Blockage,2021-05-21,14:11,2021-05-21,14:11,0.0,Cleared Main Line;Cleaned and Disinfected,20210521.0,20210521.0,29.937975118,-95.4091130639999
175,11013,2021,"912 ST EMANUEL ST,Houston,Texas",912 ST EMANUEL ST,Houston,Texas,77003.0,"Contained On Site, not within 5 ft. of Bayou/Surface Water/Drainage Ditch","Contained On Site, not within 5 ft. of Bayou/Surface Water/Drainage Ditch",0.0,Manhole,Manhole,Grease Blockage,Grease Blockage,2021-05-21,14:44,2021-05-21,14:44,0.0,Cleaned and Disinfected;Cleared Main Line,20210521.0,20210521.0,29.751616493,-95.355221953
176,11017,2021,"1615 BRAESWOOD BLVD,Houston,Texas",1615 BRAESWOOD BLVD,Houston,Texas,77030.0,"Contained On Site, not within 5 ft. of Bayou/Surface Water/Drainage Ditch","Contained On Site, not within 5 ft. of Bayou/Surface Water/Drainage Ditch",0.0,Manhole,Manhole,Collection system  wet weather,Collection system  wet weather,2021-05-21,18:25,2021-05-21,18:25,0.0,Cleaned and Disinfected,20210521.0,20210521.0,29.703269424,-95.3965298159999
177,11020,2021,"6429 INNSBRUCK MEADOWS LN,Houston,Texas",6429 INNSBRUCK MEADOWS LN,Houston,Texas,77048.0,"Contained On Site, not within 5 ft. of Bayou/Surface Water/Drainage Ditch","Contained On Site, not within 5 ft. of Bayou/Surface Water/Drainage Ditch",351.0,Manhole,Manhole,Grease Blockage,Grease Blockage,2021-05-22,10:49,2021-05-22,12:45,3.0,Cleared Main Line;Cleaned and Disinfected,20210522.0,20210522.0,29.613379212,-95.3061993859999
178,11021,2021,"5422 DANFIELD DR,Houston,Texas",5422 DANFIELD DR,Houston,Texas,77053.0,"Contained On Site, not within 5 ft. of Bayou/Surface Water/Drainage Ditch","Contained On Site, not within 5 ft. of Bayou/Surface Water/Drainage Ditch",0.0,Manhole,Manhole,Grease Blockage,Grease Blockage,2021-05-22,12:13,2021-05-22,12:13,0.0,Cleared Main Line;Cleaned and Disinfected,20210522.0,20210522.0,29.600941054,-95.463394437
179,11022,2021,"14362 CHADBOURNE DR,Houston,Texas",14362 CHADBOURNE DR,Houston,Texas,77079.0,Storm Sewer (not contained),Storm Sewer (not contained),174.0,Manhole,Manhole,Grease Blockage,Grease Blockage,2021-05-22,13:33,2021-05-22,15:00,2.0,Cleared Main Line;Cleaned and Disinfected,20210522.0,20210522.0,29.7687716080001,-95.599775042
180,11025,2021,"11003 HAZEN ST,Houston,Texas",11003 HAZEN ST,Houston,Texas,77072.0,Storm Sewer (not contained),Storm Sewer (not contained),6384.0,Manhole,Manhole,Grease Blockage,Grease Blockage,2021-05-23,10:28,2021-05-25,15:40,2.0,Cleared Main Line;Cleaned and Disinfected,20210523.0,20210525.0,29.692388791,-95.572856225
181,11026,2021,"5520 CAVALCADE ST,Houston,Texas",5520 CAVALCADE ST,Houston,Texas,77026.0,Storm Sewer (not contained),Storm Sewer (not contained),28800.0,Manhole,Manhole,"Collection system
structural blockage",Collection system structural blockage,2021-05-23,22:41,2021-05-27,0:30,7.0,Cleared Main Line;Cleaned and Disinfected;Set Bypass Pump,20210523.0,20210527.0,29.800329683,-95.31373698
182,11029,2021,"10903 DUANE ST,Houston,Texas",10903 DUANE ST,Houston,Texas,77047.0,"Contained On Site, not within 5 ft. of Bayou/Surface Water/Drainage Ditch","Contained On Site, not within 5 ft. of Bayou/Surface Water/Drainage Ditch",60.0,Private Cleanout,Private Cleanout,Collection system structural failure,Collection system structural failure,2021-05-23,12:00,2021-05-23,12:30,2.0,Cleaned and Disinfected;Set Bypass Pump,20210523.0,20210523.0,29.6411991260001,-95.357137134
183,11031,2021,"11911 KIRKNOLL DR,Houston,Texas",11911 KIRKNOLL DR,Houston,Texas,77089.0,"Contained On Site, not within 5 ft. of Bayou/Surface Water/Drainage Ditch","Contained On Site, not within 5 ft. of Bayou/Surface Water/Drainage Ditch",0.0,Private Cleanout,Private Cleanout,Grease Blockage,Grease Blockage,2021-05-24,9:42,2021-05-24,9:42,0.0,Cleared Main Line;Cleaned and Disinfected,20210524.0,20210524.0,29.603231032,-95.221588432
184,11033,2021,"4851 BENNING DR,Houston,Texas",4851 BENNING DR,Houston,Texas,77035.0,"Contained On Site, not within 5 ft. of Bayou/Surface Water/Drainage Ditch","Contained On Site, not within 5 ft. of Bayou/Surface Water/Drainage Ditch",368.0,Manhole,Manhole,Grease Blockage,Grease Blockage,2021-05-21,9:36,2021-05-21,12:40,2.0,Cleared Main Line;Cleaned and Disinfected,20210521.0,20210521.0,29.656852498,-95.462947011
185,11037,2021,"5202 KNOTTY OAKS TRL,Houston,Texas",5202 KNOTTY OAKS TRL,Houston,Texas,77045.0,"Contained On Site, not within 5 ft. of Bayou/Surface Water/Drainage Ditch","Contained On Site, not within 5 ft. of Bayou/Surface Water/Drainage Ditch",1342.0,Manhole,Manhole,Collection system  wet weather,Collection system  wet weather,2021-05-24,11:38,2021-05-25,10:00,1.0,Cleaned and Disinfected,20210524.0,20210525.0,29.6329794960001,-95.458809117
186,11039,2021,"4026 BOLIN RD,Houston,Texas",4026 BOLIN RD,Houston,Texas,77092.0,Storm Sewer (not contained),Storm Sewer (not contained),6575.0,Manhole,Manhole,Collection system  wet weather,Collection system  wet weather,2021-05-24,13:07,2021-05-24,15:30,46.0,Cleaned and Disinfected;Post Warning Signs,20210524.0,20210524.0,29.8263967730001,-95.481662208
187,11040,2021,"5701 GULF FWY,Houston,Texas",5701 GULF FWY,Houston,Texas,77023.0,Storm Sewer (not contained),Storm Sewer (not contained),3150.0,Manhole,Manhole,Collection system  wet weather,Collection system  wet weather,2021-05-24,13:44,2021-05-24,19:50,9.0,Cleaned and Disinfected;Post Warning Signs,20210524.0,20210524.0,29.718046653,-95.319258605
188,11041,2021,"5649 BARREMORE ST,Houston,Texas",5649 BARREMORE ST,Houston,Texas,77023.0,Storm Sewer (not contained),Storm Sewer (not contained),887.0,Manhole,Manhole,Collection system  wet weather,Collection system  wet weather,2021-05-24,13:55,2021-05-24,18:26,3.0,Cleaned and Disinfected;Post Warning Signs,20210524.0,20210524.0,29.7220756070001,-95.317101644
189,11042,2021,"5603 BARREMORE ST,Houston,Texas",5603 BARREMORE ST,Houston,Texas,77023.0,Storm Sewer (not contained),Storm Sewer (not contained),2550.0,Manhole,Manhole,Collection system  wet weather,Collection system  wet weather,2021-05-24,14:02,2021-05-24,19:25,8.0,Cleaned and Disinfected;Post Warning Signs,20210524.0,20210524.0,29.722707686,-95.3192228519999
190,11043,2021,"5602 LAWSON ST,Houston,Texas",5602 LAWSON ST,Houston,Texas,77023.0,Storm Sewer (not contained),Storm Sewer (not contained),1884.0,Manhole,Manhole,Collection system  wet weather,Collection system  wet weather,2021-05-24,14:16,2021-05-24,18:34,7.0,Cleaned and Disinfected;Post Warning Signs,20210524.0,20210524.0,29.723957721,-95.318735193
191,11044,2021,"5645 TRUETT ST,Houston,Texas",5645 TRUETT ST,Houston,Texas,77023.0,Storm Sewer (not contained),Storm Sewer (not contained),781.0,Manhole,Manhole,Collection system  wet weather,Collection system  wet weather,2021-05-24,14:22,2021-05-24,17:43,4.0,Cleaned and Disinfected;Post Warning Signs,20210524.0,20210524.0,29.724066728,-95.316487167
192,11045,2021,"3601 TELEPHONE RD,Houston,Texas",3601 TELEPHONE RD,Houston,Texas,77023.0,Storm Sewer (not contained),Storm Sewer (not contained),2284.0,Manhole,Manhole,Collection system  wet weather,Collection system  wet weather,2021-05-24,14:37,2021-05-24,16:55,17.0,Cleaned and Disinfected;Post Warning Signs,20210524.0,20210524.0,29.7094564840001,-95.3137312809999
193,11046,2021,"3426 PARKER RD,Houston,Texas",3426 PARKER RD,Houston,Texas,77093.0,Storm Sewer (not contained),Storm Sewer (not contained),20065.0,Manhole,Manhole,Collection system  wet weather,Collection system  wet weather,2021-05-24,16:25,2021-05-25,2:21,34.0,Cleaned and Disinfected;Post Warning Signs,20210524.0,20210525.0,29.859225806,-95.335071637
194,11047,2021,"10330 EASTEX FWY,Houston,Texas",10330 EASTEX FWY,Houston,Texas,77093.0,Storm Sewer (not contained),Storm Sewer (not contained),40255.0,Manhole,Manhole,Collection system  wet weather,Collection system  wet weather,2021-05-24,16:46,2021-05-25,2:21,70.0,Post Warning Signs;Cleaned and Disinfected,20210524.0,20210525.0,29.861749671,-95.332866495
195,11048,2021,"1301 WAYSIDE DR,Houston,Texas",1301 WAYSIDE DR,Houston,Texas,77011.0,Storm Sewer (not contained),Storm Sewer (not contained),5377.0,Manhole,Manhole,Collection system  wet weather,Collection system  wet weather,2021-05-24,16:48,2021-05-24,23:05,14.0,Cleaned and Disinfected;Post Warning Signs,20210524.0,20210524.0,29.745163593,-95.3029391109999
196,11049,2021,"24115 GLENGYLE CT,Houston,Texas",24115 GLENGYLE CT,Houston,Texas,77336.0,"Contained On Site, not within 5 ft. of Bayou/Surface Water/Drainage Ditch","Contained On Site, not within 5 ft. of Bayou/Surface Water/Drainage Ditch",26.0,Private Cleanout,Private Cleanout,Collection system  wet weather,Collection system  wet weather,2021-05-24,16:40,2021-05-24,18:50,0.0,Cleaned and Disinfected,20210524.0,20210524.0,30.021163244,-95.11920491
197,11050,2021,"6820 LYONS AVE,Houston,Texas",6820 LYONS AVE,Houston,Texas,77020.0,Storm Sewer (not contained),Storm Sewer (not contained),4427.0,Manhole,Manhole,Collection system  wet weather,Collection system  wet weather,2021-05-24,16:57,2021-05-24,23:04,12.0,Cleaned and Disinfected;Post Warning Signs,20210524.0,20210524.0,29.7764670340001,-95.3014849849999
198,11053,2021,"308 WASHINGTON AVE,Houston,Texas",308 WASHINGTON AVE,Houston,Texas,77002.0,Bayou/surface water/drainage ditch,Bayou/surface water/drainage ditch,5850.0,Manhole,Manhole,Collection system  wet weather,Collection system  wet weather,2021-05-24,18:17,2021-05-24,19:35,75.0,Cleaned and Disinfected;Post Warning Signs,20210524.0,20210524.0,29.765427318,-95.361434913
199,11054,2021,"4027 QUIET GLADE CT,Houston,Texas",4027 QUIET GLADE CT,Houston,Texas,77345.0,Storm Sewer (not contained),Storm Sewer (not contained),11250.0,Manhole,Manhole,Collection system  wet weather,Collection system  wet weather,2021-05-24,15:45,2021-05-24,22:00,30.0,Cleaned and Disinfected;Contain All or Portion of Spill;Cleared Main Line,20210524.0,20210524.0,30.070735035,-95.179196454
200,11055,2021,"4803 SCENIC WOODS TRL,Houston,Texas",4803 SCENIC WOODS TRL,Houston,Texas,77345.0,"Contained On Site, not within 5 ft. of Bayou/Surface Water/Drainage Ditch","Contained On Site, not within 5 ft. of Bayou/Surface Water/Drainage Ditch",0.0,Manhole,Manhole,Collection system  wet weather,Collection system  wet weather,2021-05-25,9:27,2021-05-25,9:27,0.0,Cleaned and Disinfected,20210525.0,20210525.0,30.078709913,-95.169270856
201,11057,2021,"2351 BROOKMERE DR,Houston,Texas",2351 BROOKMERE DR,Houston,Texas,77008.0,Storm Sewer (not contained),Storm Sewer (not contained),3106.5,Private Cleanout,Private Cleanout,Grease Blockage,Grease Blockage,2021-05-25,10:49,2021-05-26,18:00,2.0,Cleared Main Line;Cleaned and Disinfected,20210525.0,20210526.0,29.806761662,-95.442165674
202,11058,2021,"11814 KIRKHOLM DR,Houston,Texas",11814 KIRKHOLM DR,Houston,Texas,77089.0,"Contained On Site, not within 5 ft. of Bayou/Surface Water/Drainage Ditch","Contained On Site, not within 5 ft. of Bayou/Surface Water/Drainage Ditch",0.0,Manhole,Manhole,Grease Blockage,Grease Blockage,2021-05-25,11:52,2021-05-25,11:52,0.0,Cleared Main Line;Cleaned and Disinfected,20210525.0,20210525.0,29.60530526,-95.2212639689999
203,11059,2021,"2905 #5 BAER ST,Houston,Texas",2905 #5 BAER ST,Houston,Texas,77020.0,"Contained On Site, not within 5 ft. of Bayou/Surface Water/Drainage Ditch","Contained On Site, not within 5 ft. of Bayou/Surface Water/Drainage Ditch",0.0,City Cleanout,City Cleanout,Rags/Wipes,Rags/Wipes,2021-05-25,12:39,2021-05-25,12:39,0.0,Cleared City Clean Out;Cleaned and Disinfected,20210525.0,20210525.0,29.7679869780001,-95.34021491
204,11061,2021,"11826 RHINEBECK DR,Houston,Texas",11826 RHINEBECK DR,Houston,Texas,77089.0,Storm Sewer - contained,Storm Sewer - contained,0.0,City Cleanout,City Cleanout,Rags/Wipes,Rags/Wipes,2021-05-26,10:14,2021-05-26,10:14,0.0,Cleared City Clean Out;Cleaned and Disinfected,20210526.0,20210526.0,29.588533575,-95.202661257
205,11062,2021,"11403 BEXLEY DR,Houston,Texas",11403 BEXLEY DR,Houston,Texas,77099.0,Storm Sewer (not contained),Storm Sewer (not contained),260.0,Manhole,Manhole,Grease Blockage,Grease Blockage,2021-05-26,11:22,2021-05-26,13:32,2.0,Cleared Main Line;Cleaned and Disinfected,20210526.0,20210526.0,29.6830240260001,-95.5784689989999
206,11070,2021,"1207 MITCHELL RD,Houston,Texas",1207 MITCHELL RD,Houston,Texas,77037.0,Storm Sewer (not contained),Storm Sewer (not contained),0.0,Manhole,Manhole,Collection system  wet weather,Collection system  wet weather,2021-05-26,22:16,2021-05-26,22:16,0.0,Cleaned and Disinfected,20210526.0,20210526.0,29.8833074230001,-95.372889077
207,11071,2021,"12431 S RYLANDER CIR,Houston,Texas",12431 S RYLANDER CIR,Houston,Texas,77071.0,"Contained On Site, not within 5 ft. of Bayou/Surface Water/Drainage Ditch","Contained On Site, not within 5 ft. of Bayou/Surface Water/Drainage Ditch",0.0,City Cleanout,City Cleanout,Rags/Wipes,Rags/Wipes,2021-05-27,10:32,2021-05-27,10:32,0.0,Cleared City Clean Out;Cleaned and Disinfected,20210527.0,20210527.0,29.640573626,-95.5313108189999
208,11073,2021,"12929 WESTPARK DR,Houston,Texas",12929 WESTPARK DR,Houston,Texas,77082.0,"Contained On Site, not within 5 ft. of Bayou/Surface Water/Drainage Ditch","Contained On Site, not within 5 ft. of Bayou/Surface Water/Drainage Ditch",0.0,Manhole,Manhole,Grease Blockage,Grease Blockage,2021-05-27,10:51,2021-05-27,10:51,0.0,Cleared Main Line;Cleaned and Disinfected,20210527.0,20210527.0,29.722089353,-95.615738796
209,11074,2021,"7629 AVENUE K,Houston,Texas",7629 AVENUE K,Houston,Texas,77012.0,"Contained On Site, not within 5 ft. of Bayou/Surface Water/Drainage Ditch","Contained On Site, not within 5 ft. of Bayou/Surface Water/Drainage Ditch",3184.0,City Cleanout,City Cleanout,Rags/Wipes,Rags/Wipes,2021-05-27,11:33,2021-05-28,14:05,2.0,Cleared City Clean Out;Cleaned and Disinfected,20210527.0,20210528.0,29.7383699430001,-95.286140738
210,11076,2021,"1740 PASADENA ST,Houston,Texas",1740 PASADENA ST,Houston,Texas,77023.0,"Contained On Site, not within 5 ft. of Bayou/Surface Water/Drainage Ditch","Contained On Site, not within 5 ft. of Bayou/Surface Water/Drainage Ditch",0.0,Service Lateral,Service Lateral,Collection system structural failure,Collection system structural failure,2021-05-27,15:46,2021-05-27,15:46,0.0,Inspect Sewer with CCTV,20210527.0,20210527.0,29.7264284550001,-95.2987350499999
211,11078,2021,"6420 MAYBELL ST,Houston,Texas",6420 MAYBELL ST,Houston,Texas,77091.0,Storm Sewer (not contained),Storm Sewer (not contained),1671.0,Service Lateral,Service Lateral,"Collection system
structural blockage",Collection system structural blockage,2021-05-27,9:24,2021-05-29,13:15,1.0,Cleaned and Disinfected;Set Bypass Pump;Inspect Sewer with CCTV,20210527.0,20210529.0,29.8549568930001,-95.42015069
212,11080,2021,"2510 PARK ST,Houston,Texas",2510 PARK ST,Houston,Texas,77019.0,"Contained On Site, not within 5 ft. of Bayou/Surface Water/Drainage Ditch","Contained On Site, not within 5 ft. of Bayou/Surface Water/Drainage Ditch",0.0,Private Cleanout,Private Cleanout,Collection system structural blockage,Collection system structural blockage,2021-05-27,19:45,2021-05-27,19:45,0.0,Set Bypass Pump;Cleaned and Disinfected,20210527.0,20210527.0,29.74327872,-95.4029123
213,11082,2021,"6011 DASHWOOD DR,Houston,Texas",6011 DASHWOOD DR,Houston,Texas,77081.0,"Contained On Site, not within 5 ft. of Bayou/Surface Water/Drainage Ditch","Contained On Site, not within 5 ft. of Bayou/Surface Water/Drainage Ditch",0.0,Manhole,Manhole,Grease Blockage,Grease Blockage,2021-05-27,20:40,2021-05-27,20:40,0.0,Cleared Main Line;Cleaned and Disinfected,20210527.0,20210527.0,29.707309836,-95.487816201
214,11084,2021,"2545 MUNGER ST,Houston,Texas",2545 MUNGER ST,Houston,Texas,77023.0,"Contained On Site, not within 5 ft. of Bayou/Surface Water/Drainage Ditch","Contained On Site, not within 5 ft. of Bayou/Surface Water/Drainage Ditch",0.0,Manhole,Manhole,Grease Blockage,Grease Blockage,2021-05-27,21:38,2021-05-27,21:38,0.0,Cleared Main Line;Cleaned and Disinfected,20210527.0,20210527.0,29.713875004,-95.3260328969999
215,11087,2021,"5422 DANFIELD DR,Houston,Texas",5422 DANFIELD DR,Houston,Texas,77053.0,"Contained On Site, not within 5 ft. of Bayou/Surface Water/Drainage Ditch","Contained On Site, not within 5 ft. of Bayou/Surface Water/Drainage Ditch",0.0,Manhole,Manhole,Grease Blockage,Grease Blockage,2021-05-28,11:39,2021-05-28,11:39,0.0,Cleaned and Disinfected;Cleared Main Line,20210528.0,20210528.0,29.600941054,-95.463394437
216,11089,2021,"7162 AVENUE L,Houston,Texas",7162 AVENUE L,Houston,Texas,77011.0,"Contained On Site, not within 5 ft. of Bayou/Surface Water/Drainage Ditch","Contained On Site, not within 5 ft. of Bayou/Surface Water/Drainage Ditch",0.0,City Cleanout,City Cleanout,Grease Blockage,Grease Blockage,2021-05-28,14:36,2021-05-28,14:36,0.0,Cleared City Clean Out;Cleaned and Disinfected,20210528.0,20210528.0,29.741699318,-95.2947466049999
217,11092,2021,"7226 LOG VIEW DR,Houston,Texas",7226 LOG VIEW DR,Houston,Texas,77040.0,"Contained On Site, not within 5 ft. of Bayou/Surface Water/Drainage Ditch","Contained On Site, not within 5 ft. of Bayou/Surface Water/Drainage Ditch",0.0,Service Lateral,Service Lateral,Collection system structural failure,Collection system structural failure,2021-05-28,16:12,2021-05-28,16:12,0.0,Cleaned and Disinfected; Inspect Sewer with CCTV,20210528.0,20210528.0,29.889853648,-95.499803161
218,11093,2021,"6012 MURPHY ST,Houston,Texas",6012 MURPHY ST,Houston,Texas,77033.0,"Contained On Site, not within 5 ft. of Bayou/Surface Water/Drainage Ditch","Contained On Site, not within 5 ft. of Bayou/Surface Water/Drainage Ditch",0.0,City Cleanout,City Cleanout,Rags/Wipes,Rags/Wipes,2021-05-29,10:03,2021-05-29,10:03,0.0,Cleaned and Disinfected;Cleared Main Line,20210529.0,20210529.0,29.6836852750001,-95.327189432
219,11094,2021,"268 PARKER RD,Houston,Texas",268 PARKER RD,Houston,Texas,77076.0,Storm Sewer (not contained),Storm Sewer (not contained),107.0,City Cleanout,City Cleanout,Grease Blockage,Grease Blockage,2021-05-29,10:03,2021-05-29,11:50,1.0,Cleared City Clean Out;Cleaned and Disinfected,20210529.0,20210529.0,29.8592306160001,-95.37309435
220,11105,2021,"13173 CLAREWOOD DR,Houston,Texas",13173 CLAREWOOD DR,Houston,Texas,77072.0,"Contained On Site, not within 5 ft. of Bayou/Surface Water/Drainage Ditch","Contained On Site, not within 5 ft. of Bayou/Surface Water/Drainage Ditch",1366.0,Manhole,Manhole,Rags/Wipes,Rags/Wipes,2021-05-31,12:13,2021-06-01,10:59,1.0,Cleared Main Line;Cleaned and Disinfected,20210531.0,20210601.0,29.707038095,-95.613663604
221,11106,2021,"4853 BENNING DR,Houston,Texas",4853 BENNING DR,Houston,Texas,77035.0,"Contained On Site, not within 5 ft. of Bayou/Surface Water/Drainage Ditch","Contained On Site, not within 5 ft. of Bayou/Surface Water/Drainage Ditch",0.0,Manhole,Manhole,Grease Blockage,Grease Blockage,2021-05-31,19:44,2021-05-31,19:44,0.0,Cleared Main Line;Cleaned and Disinfected,20210531.0,20210531.0,29.656852498,-95.4629449989999
222,11107,2021,"5501 SCOTT ST,Houston,Texas",5501 SCOTT ST,Houston,Texas,77021.0,"Contained On Site, not within 5 ft. of Bayou/Surface Water/Drainage Ditch","Contained On Site, not within 5 ft. of Bayou/Surface Water/Drainage Ditch",0.0,Service Lateral,Service Lateral,Collection system structural failure,Collection system structural failure,2021-06-01,10:40,2021-06-01,10:40,0.0,Set Bypass Pump;Cleaned and Disinfected,20210601.0,20210601.0,29.707481623,-95.35734467
223,11108,2021,"5505 PINE ST,Houston,Texas",5505 PINE ST,Houston,Texas,77081.0,Storm Sewer (not contained),Storm Sewer (not contained),0.0,Manhole,Manhole,Rags/Wipes,Rags/Wipes,2021-06-01,11:07,2021-06-01,11:07,0.0,Cleared Main Line;Cleaned and Disinfected,20210601.0,20210601.0,29.6945825450001,-95.485079007
224,11111,2021,"1808 ANTOINE DR,Houston,Texas",1808 ANTOINE DR,Houston,Texas,77055.0,Storm Sewer (not contained),Storm Sewer (not contained),0.0,Service Lateral,Service Lateral,Collection system structural blockage,Collection system structural blockage,2021-06-01,16:04,2021-06-01,16:04,0.0,Cleared City Clean Out;Cleaned and Disinfected,20210601.0,20210601.0,29.803608642,-95.4754025189999
225,11112,2021,"7927 CAROLWOOD DR,Houston,Texas",7927 CAROLWOOD DR,Houston,Texas,77028.0,"Contained On Site, not within 5 ft. of Bayou/Surface Water/Drainage Ditch","Contained On Site, not within 5 ft. of Bayou/Surface Water/Drainage Ditch",0.0,Private Cleanout,Private Cleanout,Grease Blockage,Grease Blockage,2021-06-01,16:35,2021-06-01,16:35,0.0,Cleared Main Line;Cleaned and Disinfected,20210601.0,20210601.0,29.8362474790001,-95.282895013
226,11116,2021,"2905 #5 BAER ST,Houston,Texas",2905 #5 BAER ST,Houston,Texas,77020.0,"Contained On Site, not within 5 ft. of Bayou/Surface Water/Drainage Ditch","Contained On Site, not within 5 ft. of Bayou/Surface Water/Drainage Ditch",312.0,City Cleanout,City Cleanout,Rags/Wipes,Rags/Wipes,2021-06-02,9:54,2021-06-02,15:06,1.0,Cleared City Clean Out;Cleaned and Disinfected,20210602.0,20210602.0,29.7679869780001,-95.34021491
227,11118,2021,"6303 N SOUTHWOOD CT,Houston,Texas",6303 N SOUTHWOOD CT,Houston,Texas,77035.0,"Contained On Site, not within 5 ft. of Bayou/Surface Water/Drainage Ditch","Contained On Site, not within 5 ft. of Bayou/Surface Water/Drainage Ditch",111.0,Manhole,Manhole,Grease Blockage,Grease Blockage,2021-06-02,9:24,2021-06-02,11:15,1.0,Cleared Main Line;Cleaned and Disinfected,20210602.0,20210602.0,29.6481873280001,-95.5006933189999
228,11119,2021,"8159 NILES ST,Houston,Texas",8159 NILES ST,Houston,Texas,77017.0,"Contained On Site, not within 5 ft. of Bayou/Surface Water/Drainage Ditch","Contained On Site, not within 5 ft. of Bayou/Surface Water/Drainage Ditch",0.0,Private Cleanout,Private Cleanout,Collection system structural blockage,Collection system structural blockage,2021-06-02,10:29,2021-06-02,10:29,0.0,Cleaned and Disinfected,20210602.0,20210602.0,29.684958109,-95.271888904
229,11121,2021,"5551 ROYALTON ST,Houston,Texas",5551 ROYALTON ST,Houston,Texas,77081.0,Storm Sewer (not contained),Storm Sewer (not contained),2794.0,Manhole,Manhole,Rags/Wipes,Rags/Wipes,2021-06-02,11:22,2021-06-04,9:55,1.0,Cleared Main Line;Cleaned and Disinfected,20210602.0,20210604.0,29.721895031,-95.4722613609999
230,11124,2021,"10610 CHEEVES DR,Houston,Texas",10610 CHEEVES DR,Houston,Texas,77016.0,"Contained On Site, not within 5 ft. of Bayou/Surface Water/Drainage Ditch","Contained On Site, not within 5 ft. of Bayou/Surface Water/Drainage Ditch",880.0,Manhole,Manhole,Grease Blockage,Grease Blockage,2021-06-02,11:39,2021-06-02,14:35,5.0,Cleared Main Line;Cleaned and Disinfected;Set Bypass Pump,20210602.0,20210602.0,29.8674498680001,-95.292911891
231,11125,2021,"12207 CARRSWOLD DR,Houston,Texas",12207 CARRSWOLD DR,Houston,Texas,77071.0,"Contained On Site, not within 5 ft. of Bayou/Surface Water/Drainage Ditch","Contained On Site, not within 5 ft. of Bayou/Surface Water/Drainage Ditch",1690.0,Manhole,Manhole,Grease Blockage,Grease Blockage,2021-06-02,13:54,2021-06-03,18:04,1.0,Cleared Main Line;Cleaned and Disinfected,20210602.0,20210603.0,29.6447570340001,-95.525154395
232,11134,2021,"3604 QUITMAN ST,Houston,Texas",3604 QUITMAN ST,Houston,Texas,77026.0,"Contained On Site, not within 5 ft. of Bayou/Surface Water/Drainage Ditch","Contained On Site, not within 5 ft. of Bayou/Surface Water/Drainage Ditch",237.0,City Cleanout,City Cleanout,Collection system structural blockage,Collection system structural blockage,2021-06-03,10:15,2021-06-03,14:11,1.0,Cleared Service Lateral;,20210603.0,20210603.0,29.783810587,-95.333915742
233,11136,2021,"414 W CANINO RD,Houston,Texas",414 W CANINO RD,Houston,Texas,77037.0,Storm Sewer (not contained),Storm Sewer (not contained),2475.0,Force Main,Force Main,Air Relief Valve (ARV) Failure,Air Relief Valve (ARV) Failure,2021-06-03,11:12,2021-06-03,19:26,5.0,Cleaned and Disinfected,20210603.0,20210603.0,29.875427512,-95.406138997
234,11138,2021,"12861 MCNAIR ST,Houston,Texas",12861 MCNAIR ST,Houston,Texas,77015.0,Storm Sewer (not contained),Storm Sewer (not contained),606.0,Private Cleanout,Private Cleanout,Collection system  wet weather,Collection system  wet weather,2021-06-03,11:04,2021-06-03,14:26,3.0,Cleaned and Disinfected,20210603.0,20210603.0,29.7727235080001,-95.2038355619999
235,11139,2021,"426 WYCLIFFE DR,Houston,Texas",426 WYCLIFFE DR,Houston,Texas,77079.0,Storm Sewer (not contained),Storm Sewer (not contained),1427.0,Manhole,Manhole,Grease Blockage,Grease Blockage,2021-06-03,14:12,2021-06-04,13:59,1.0,Cleared Main Line;Cleaned and Disinfected,20210603.0,20210604.0,29.771062005,-95.574432526
236,11140,2021,"10330 EASTEX FWY,Houston,Texas",10330 EASTEX FWY,Houston,Texas,77093.0,Storm Sewer (not contained),Storm Sewer (not contained),39300.0,Manhole,Manhole,Collection system  wet weather,Collection system  wet weather,2021-06-03,15:51,2021-06-04,3:48,55.0,Post Warning Signs;Cleaned and Disinfected,20210603.0,20210604.0,29.861749671,-95.332866495
237,11141,2021,"3426 PARKER RD,Houston,Texas",3426 PARKER RD,Houston,Texas,77093.0,Storm Sewer (not contained),Storm Sewer (not contained),28290.0,Manhole,Manhole,Collection system  wet weather,Collection system  wet weather,2021-06-03,16:06,2021-06-04,3:48,40.0,Post Warning Signs;Cleaned and Disinfected,20210603.0,20210604.0,29.859225806,-95.335071637
238,11142,2021,"3200 PARKER RD,Houston,Texas",3200 PARKER RD,Houston,Texas,77093.0,Storm Sewer (not contained),Storm Sewer (not contained),14760.0,Manhole,Manhole,Collection system  wet weather,Collection system  wet weather,2021-06-03,16:08,2021-06-04,1:45,26.0,Cleaned and Disinfected;Post Warning Signs,20210603.0,20210604.0,29.8594960290001,-95.337609395
239,11145,2021,"13226 FARADAY DR,Houston,Texas",13226 FARADAY DR,Houston,Texas,77047.0,"Contained On Site, not within 5 ft. of Bayou/Surface Water/Drainage Ditch","Contained On Site, not within 5 ft. of Bayou/Surface Water/Drainage Ditch",0.0,Private Cleanout,Private Cleanout,Grease Blockage,Grease Blockage,2021-06-03,19:18,2021-06-03,19:18,0.0,Cleared Main Line;Cleaned and Disinfected,20210603.0,20210603.0,29.615653013,-95.402507454
240,11147,2021,"14750 PIPING ROCK LN,Houston,Texas",14750 PIPING ROCK LN,Houston,Texas,77077.0,"Contained On Site, not within 5 ft. of Bayou/Surface Water/Drainage Ditch","Contained On Site, not within 5 ft. of Bayou/Surface Water/Drainage Ditch",482.0,Manhole,Manhole,Grease Blockage,Grease Blockage,2021-06-04,14:33,2021-06-04,18:34,2.0,Cleared Main Line;Cleaned and Disinfected,20210604.0,20210604.0,29.7408074420001,-95.645951031
241,11148,2021,"926 RUELL ST,Houston,Texas",926 RUELL ST,Houston,Texas,77017.0,Storm Sewer (not contained),Storm Sewer (not contained),640.0,Manhole,Manhole,Grease Blockage,Grease Blockage,2021-06-04,14:52,2021-06-04,17:00,5.0,Cleared Main Line;Cleaned and Disinfected,20210604.0,20210604.0,29.696111069,-95.247979609
242,11157,2021,"15407 NICKEL DR,Houston,Texas",15407 NICKEL DR,Houston,Texas,77489.0,Storm Sewer (not contained),Storm Sewer (not contained),352.0,Manhole,Manhole,Grease Blockage,Grease Blockage,2021-06-05,13:22,2021-06-05,14:50,4.0,Cleaned and Disinfected;Cleared Main Line,20210605.0,20210605.0,29.603373483,-95.504612781
243,11158,2021,"7111 AUGUSTINE DR,Houston,Texas",7111 AUGUSTINE DR,Houston,Texas,77036.0,"Contained On Site, not within 5 ft. of Bayou/Surface Water/Drainage Ditch","Contained On Site, not within 5 ft. of Bayou/Surface Water/Drainage Ditch",522.0,Private Cleanout,Private Cleanout,Grease Blockage,Grease Blockage,2021-06-05,13:54,2021-06-05,17:50,2.0,Cleared Main Line;Cleaned and Disinfected,20210605.0,20210605.0,29.702561656,-95.53896643
244,11162,2021,"4601 DEWBERRY ST,Houston,Texas",4601 DEWBERRY ST,Houston,Texas,77021.0,Bayou/surface water/drainage ditch,Bayou/surface water/drainage ditch,327.0,Manhole,Manhole,Grease Blockage,Grease Blockage,2021-06-06,8:53,2021-06-06,12:20,2.0,Cleaned and Disinfected;Cleared Main Line,20210606.0,20210606.0,29.695917195,-95.347361153
245,11163,2021,"4851 BENNING DR,Houston,Texas",4851 BENNING DR,Houston,Texas,77035.0,"Contained On Site, not within 5 ft. of Bayou/Surface Water/Drainage Ditch","Contained On Site, not within 5 ft. of Bayou/Surface Water/Drainage Ditch",314.0,Manhole,Manhole,Grease Blockage,Grease Blockage,2021-06-06,10:04,2021-06-06,15:17,1.0,Cleaned and Disinfected;Cleared Main Line,20210606.0,20210606.0,29.656852498,-95.462947011
246,11169,2021,"301 ENGLISH ST,Houston,Texas",301 ENGLISH ST,Houston,Texas,77009.0,"Contained On Site, not within 5 ft. of Bayou/Surface Water/Drainage Ditch","Contained On Site, not within 5 ft. of Bayou/Surface Water/Drainage Ditch",0.0,City Cleanout,City Cleanout,Rags/Wipes,Rags/Wipes,2021-06-07,11:21,2021-06-07,11:21,0.0,Cleared City Clean Out;Cleaned and Disinfected,20210607.0,20210607.0,29.8078509330001,-95.367962194
247,11172,2021,"7000 CAPITOL ST,Houston,Texas",7000 CAPITOL ST,Houston,Texas,77011.0,"Contained On Site, not within 5 ft. of Bayou/Surface Water/Drainage Ditch","Contained On Site, not within 5 ft. of Bayou/Surface Water/Drainage Ditch",0.0,Manhole,Manhole,Collection system  wet weather,Collection system  wet weather,2021-06-07,12:44,2021-06-07,12:44,0.0,Cleaned and Disinfected,20210607.0,20210607.0,29.73439449,-95.302750066
248,11174,2021,"12861 MCNAIR ST,Houston,Texas",12861 MCNAIR ST,Houston,Texas,77015.0,Storm Sewer (not contained),Storm Sewer (not contained),21261.0,Manhole,Manhole,Grease Blockage,Grease Blockage,2021-06-04,14:53,2021-06-09,13:00,3.0,Cleared Main Line;Cleaned and Disinfected;Set Bypass Pump,20210604.0,20210609.0,29.7727235080001,-95.2038355619999
249,11185,2021,"3260 TRUXILLO ST,Houston,Texas",3260 TRUXILLO ST,Houston,Texas,77004.0,"Contained On Site, not within 5 ft. of Bayou/Surface Water/Drainage Ditch","Contained On Site, not within 5 ft. of Bayou/Surface Water/Drainage Ditch",651.0,Manhole,Manhole,Grease Blockage,Grease Blockage,2021-06-08,11:43,2021-06-08,15:20,3.0,Cleaned and Disinfected;Cleared Main Line,20210608.0,20210608.0,29.7249744040001,-95.359397314
250,11188,2021,"8307 ROSWELL ST,Houston,Texas",8307 ROSWELL ST,Houston,Texas,77022.0,"Contained On Site, not within 5 ft. of Bayou/Surface Water/Drainage Ditch","Contained On Site, not within 5 ft. of Bayou/Surface Water/Drainage Ditch",0.0,City Cleanout,City Cleanout,Grease Blockage,Grease Blockage,2021-06-08,15:48,2021-06-08,15:48,0.0,Cleared Service Lateral;Cleaned and Disinfected,20210608.0,20210608.0,29.83597511,-95.369325343
251,11191,2021,"10342 DUNCUM DR,Houston,Texas",10342 DUNCUM DR,Houston,Texas,77013.0,Bayou/surface water/drainage ditch,Bayou/surface water/drainage ditch,176.0,Manhole,Manhole,Grease Blockage,Grease Blockage,2021-06-08,16:33,2021-06-08,18:01,2.0,Cleared Main Line;Cleaned and Disinfected,20210608.0,20210608.0,29.775030417,-95.245329335
252,11195,2021,"1912 CHASE ST,Houston,Texas",1912 CHASE ST,Houston,Texas,77026.0,"Contained On Site, not within 5 ft. of Bayou/Surface Water/Drainage Ditch","Contained On Site, not within 5 ft. of Bayou/Surface Water/Drainage Ditch",0.0,Private Cleanout,Private Cleanout,Collection system structural blockage,Collection system structural blockage,2021-06-09,11:17,2021-06-09,11:17,0.0,Set Bypass Pump;Cleaned and Disinfected,20210609.0,20210609.0,29.779112656,-95.347478332
